T_BME280_0_C;p_BME280_0_hPa;rH_BME280_0_%;T_BME280_1_C;p_BME280_1_hPa;rH_BME280_1_%;AccelX_mss;AccelY_mss;AccelZ_mss;GyroX_rads;GyroY_rads;GyroZ_rads;MagX_uT;MagY_uT;MagZ_uT;millis_ms;Jahr/Monat/Tag;Stunden:Minuten:Sekunden;f_lat;f_lon;f_altitude;f_kmph;Sateliten
$GPRMC,,V,,,,,,,,,,N*53
$GPVTG,,,,,,,,,N*30
$GPGGA,,,,,,0,00,99.99,,,,,,*48
$GPGSA,A,1,,,,,,,,,,,,,99.99,99.99,99.99*30
$GPGSV,1,1,00*79
$GPGLL,,,,,,V,N*64
$GPRMC,,V,,,,,,,,,,N*53
$GPVTG,,,,,,,,,N*30
$GPGGA,,,,,,0,00,99.99,,,,,,*48
$GPGSA,A,1,,,,,,,,,,,,,99.99,99.99,99.99*30
$GPGSV,1,1,00*79
$GPGLL,,,,,,V,N*64
$GPRMC,,V,,,,,,,,,,N*53
$GPVTG,,,,,,,,,N*30
$GPGGA,,,,,,0,00,99.99,,,,,,*48
$GPGSA,A,1,,,,,,,,,,,,,99.99,99.99,99.99*30
$GPGSV,1,1,00*79
$GPGLL,,,,,,V,N*64
$GPRMC,,V,,,,,,,,,,N*53
$GPVTG,,,,,,,,,N*30
$GPGGA,,,,,,0,00,99.99,,,,,,*48
$GPGSA,A,1,,,,,,,,,,,,,99.99,99.99,99.99*30
$GPGSV,1,1,00*79
$GPGLL,,,,,,V,N*64
$GPRMC,,V,,,,,,,,,,N*53
$GPVTG,,,,,,,,,N*30
$GPGGA,,,,,,0,00,99.99,,,,,,*48
$GPGSA,A,1,,,,,,,,,,,,,99.99,99.99,99.99*30
$GPGSV,1,1,00*79
$GPGLL,,,,,,V,N*64
23.18;1022.14;42.75;22.99;1021.30;44.48;1.62;0.30;-10.58;0.05;-0.40;-1.37;-37.51;30.37;22.31;11498;
$GPRMC,,V,,,,,,,,,,N*53
$GPVTG,,,,,,,,,N*30
$GPGGA,,,,,,0,00,99.99,,,,,,*48
$GPGSA,A,1,,,,,,,,,,,,,99.99,99.99,99.99*30
$GPGSV,1,1,01,01,,,20*7B
$GPGLL,,,,,,V,N*64
$GPRMC,,V,,,,,,,,,,N*53
$GPVTG,,,,,,,,,N*30
$GPGGA,,,,,,0,00,99.99,,,,,,*48
$GPGSA,A,1,,,,,,,,,,,,,99.99,99.99,99.99*30
$GPGSV,1,1,00*79
$GPGLL,,,,,,V,N*64
$GPRMC,,V,,,,,,,,,,N*53
$GPVTG,,,,,,,,,N*30
$GPGGA,,,,,,0,00,99.99,,,,,,*48
$GPGSA,A,1,,,,,,,,,,,,,99.99,99.99,99.99*30
$GPGSV,1,1,00*79
$GPGLL,,,,,,V,N*64
$GPRMC,,V,,,,,,,,,,N*53
$GPVTG,,,,,,,,,N*30
$GPGGA,,,,,,0,00,99.99,,,,,,*48
$GPGSA,A,1,,,,,,,,,,,,,99.99,99.99,99.99*30
$GPGSV,1,1,00*79
$GPGLL,,,,,,V,N*64
$GPRMC,,V,,,,,,,,,,N*53
$GPVTG,,,,,,,,,N*30
$GPGGA,,,,,,0,00,99.99,,,,,,*48
$GPGSA,A,1,,,,,,,,,,,,,99.99,99.99,99.99*30
$GPGSV,1,1,00*79
$GPGLL,,,,,,V,N*64
23.10;1022.22;41.49;23.67;1021.42;43.53;0.61;0.67;-9.97;0.02;-0.55;-0.54;-29.12;8.40;22.48;16884;
$GPRMC,,V,,,,,,,,,,N*53
$GPVTG,,,,,,,,,N*30
$GPGGA,,,,,,0,00,99.99,,,,,,*48
$GPGSA,A,1,,,,,,,,,,,,,99.99,99.99,99.99*30
$GPGSV,1,1,00*79
$GPGLL,,,,,,V,N*64
$GPRMC,,V,,,,,,,,,,N*53
$GPVTG,,,,,,,,,N*30
$GPGGA,,,,,,0,00,99.99,,,,,,*48
$GPGSA,A,1,,,,,,,,,,,,,99.99,99.99,99.99*30
$GPGSV,1,1,00*79
$GPGLL,,,,,,V,N*64
$GPRMC,,V,,,,,,,,,,N*53
$GPVTG,,,,,,,,,N*30
$GPGGA,,,,,,0,00,99.99,,,,,,*48
$GPGSA,A,1,,,,,,,,,,,,,99.99,99.99,99.99*30
$GPGSV,1,1,00*79
$GPGLL,,,,,,V,N*64
$GPRMC,,V,,,,,,,,,,N*53
$GPVTG,,,,,,,,,N*30
$GPGGA,,,,,,0,00,99.99,,,,,,*48
$GPGSA,A,1,,,,,,,,,,,,,99.99,99.99,99.99*30
$GPGSV,1,1,00*79
$GPGLL,,,,,,V,N*64
$GPRMC,,V,,,,,,,,,,N*53
$GPVTG,,,,,,,,,N*30
$GPGGA,,,,,,0,00,99.99,,,,,,*48
$GPGSA,A,1,,,,,,,,,,,,,99.99,99.99,99.99*30
$GPGSV,1,1,00*79
$GPGLL,,,,,,V,N*64
22.11;1022.20;36.27;23.98;1021.39;37.72;1.58;1.10;-10.07;0.01;0.10;0.36;-38.05;31.98;22.82;22263;
$GPRMC,,V,,,,,,,,,,N*53
$GPVTG,,,,,,,,,N*30
$GPGGA,,,,,,0,00,$GPRMC,,V,,,,,,,,,,N*53
$GPVTG,,,,,,,,,N*30
$GPGGA,,,,,,0,00,99.99,,,,,,*48
$GPGSA,A,1,,,,,,,,,,,,,99.99,99.99,99.99*30
$GPGSV,1,1,00*79
$GPGLL,,,,,,V,N*64
$GPRMC,,V,,,,,,,,,,N*53
$GPVTG,,,,,,,,,N*30
$GPGGA,,,,,,0,00,99.99,,,,,,*48
$GPGSA,A,1,,,,,,,,,,,,,99.99,99.99,99.99*30
$GPGSV,1,1,01,15,,,44*7C
$GPGLL,,,,,,V,N*64
$GPRMC,,V,,,,,,,,,,N*53
$GPVTG,,,,,,,,,N*30
$GPGGA,,,,,,0,00,99.99,,,,,,*48
$GPGSA,A,1,,,,,,,,,,,,,99.99,99.99,99.99*30
$GPGSV,1,1,03,10,,,29,15,,,45,21,,,45*77
$GPGLL,,,,,,V,N*64
$GPRMC,,V,,,,,,,,,,N*53
$GPVTG,,,,,,,,,N*30
$GPGGA,,,,,,0,00,99.99,,,,,,*48
$GPGSA,A,1,,,,,,,,,,,,,99.99,99.99,99.99*30
$GPGSV,1,1,04,10,,,42,15,,,44,20,,,46,21,,,36*78
$GPGLL,,,,,,V,N*64
$GPRMC,,V,,,,,,,,,,N*53
$GPVTG,,,,,,,,,N*30
$GPGGA,,,,,,0,00,99.99,,,,,,*48
$GPGSA,A,1,,,,,,,,,,,,,99.99,99.99,99.99*30
$GPGSV,1,1,04,10,,,43,15,,,45,20,,,41,21,,,43*7D
$GPGLL,,,,,,V,N*64
19.88;1022.21;34.34;23.34;1021.46;32.85;-1.32;0.51;-9.61;0.01;-0.01;-1.10;-23.40;6.97;21.11;27648;
$GPRMC,,V,,,,,,,,,,N*53
$GPVTG,,,,,,,,,N*30
$GPGGA,,,,,,0,00,99.99,,,,,,*48
$GPGSA,A,1,,,,,,,,,,,,,99.99,99.99,99.99*30
$GPGSV,1,1,04,10,,,43,15,,,38,20,,,44,21,,,41*70
$GPGLL,,,,,,V,N*64
$GPRMC,,V,,,,,,,,,,N*53
$GPVTG,,,,,,,,,N*30
$GPGGA,,,,,,0,00,99.99,,,,,,*48
$GPGSA,A,1,,,,,,,,,,,,,99.99,99.99,99.99*30
$GPGSV,2,1,06,03,,,28,10,,,40,15,,,32,20,,,45*76
$GPGSV,2,2,06,21,,,36,26,,,30*7E
$GPGLL,,,,,,V,N*64
$GPRMC,,V,,,,,,,,,,N*53
$GPVTG,,,,,,,,,N*30
$GPGGA,,,,,,0,00,99.99,,,,,,*48
$GPGSA,A,1,,,,,,,,,,,,,99.99,99.99,99.99*30
$GPGSV,2,1,05,10,,,41,15,,,41,20,,,46,21,,,36*7C
$GPGSV,2,2,05,26,,,39*72
$GPGLL,,,,,,V,N*64
$GPRMC,,V,,,,,,,,,,N*53
$GPVTG,,,,,,,,,N*30
$GPGGA,,,,,,0,00,99.99,,,,,,*48
$GPGSA,A,1,,,,,,,,,,,,,99.99,99.99,99.99*30
$GPGSV,2,1,05,10,,,37,15,,,44,20,,,47,21,,,45*7D
$GPGSV,2,2,05,26,,,40*7C
$GPGLL,,,,,,V,N*64
$GPRMC,,V,,,,,,,,,,N*53
$GPVTG,,,,,,,,,N*30
$GPGGA,,,,,,0,00,99.99,,,,,,*48
$GPGSA,A,1,,,,,,,,,,,,,99.99,99.99,99.99*30
$GPGSV,2,1,05,10,,,31,15,,,39,20,,,42,21,,,38*7E
$GPGSV,2,2,05,26,,,42*7E
$GPGLL,,,,,,V,N*64
18.31;1022.27;35.40;19.42;1021.48;32.34;-1.44;0.06;-9.50;-0.00;0.00;-0.00;-17.33;6.61;20.42;33032;
$GPRMC,221857.00,V,,,,,,,,,,N*76
$GPVTG,,,,,,,,,N*30
$GPGGA,2,00,99.99,,,,,,*6D
$GPGSA,A,1,,,,,,,,,,,,,99.99,99.99,99.99*30
$GPGSV,2,1,06,08,,,33,10,,,34,15,,,39,20,,,42*78
$GPGSV,2,2,06,21,,,40,26,,,38*77
$GPGLL,,,,,221857.00,V,N*41
$GPRMC,221858.00,V,,,,,,,,,,N*79
$GPVTG,,,,,,,,,N*30
$GPGGA,221858.00,,,,,0,00,99.99,,,,,,*62
$GPGSA,A,1,,,,,,,,,,,,,99.99,99.99,99.99*30
$GPGSV,2,1,06,08,,,33,10,,,36,15,,,41,20,,,44*73
$GPGSV,2,2,06,21,,,38,26,,,42*75
$GPGLL,,,,,221858.00,V,N*4E
$GPRMC,221859.00,V,,,,,,,,,,N*78
$GPVTG,,,,,,,,,N*30
$GPGGA,221859.00,,,,,0,00,99.99,,,,,,*63
$GPGSA,A,1,,,,,,,,,,,,,99.99,99.99,99.99*30
$GPGSV,2,1,06,08,,,32,10,,,39,15,,,41,20,,,42*7B
$GPGSV,2,2,06,21,,,31,26,,,35*7C
$GPGLL,,,,,221859.00,V,N*4F
$GPRMC,221900.00,V,,,,,,,,,,N*75
$GPVTG,,,,,,,,,N*30
$GPGGA,221900.00,,,,,0,00,99.99,,,,,,*6E
$GPGSA,A,1,,,,,,,,,,,,,99.99,99.99,99.99*30
$GPGSV,2,1,06,08,,,34,10,,,43,15,,,39,20,,,41*7C
$GPGSV,2,2,06,21,,,39,26,,,39*78
$GPGLL,,,,,221900.00,V,N*42
$GPRMC,221901.00,V,,,,,,,,,,N*74
$GPVTG,,,,,,,,,N*30
$GPGGA,221901.00,,,,,0,00,99.99,,,,,,*6F
$GPGSA,A,1,,,,,,,,,,,,,99.99,99.99,99.99*30
$GPGSV,2,1,06,08,,,36,10,,,43,15,,,43,20,,,42*70
$GPGSV,2,2,06,21,,,40,26,,,37*78
$GPGLL,,,,,221901.00,V,N*43
$GPRMC,221902.00,V,,,,,,,,,,N*77
$GPVTG,,,,,,,,,N*30
$GPGGA,221902.00,,,,,0,00,99.99,,,,,,*6C
$GPGSA,A,1,,,,,,,,,,,,,99.99,99.99,99.99*30
17.35;1022.29;36.70;16.69;1021.39;35.21;-1.43;0.08;-9.44;0.00;-0.00;-0.00;-16.97;5.54;21.11;38436;
$GPGSV,2,1,07,04,,,24,08,,,36,10,,,43,15,,,41*75
$GPGSV,2,2,07,20,,,42,21,,,36,26,,,3$GPRMC,221903.00,V,,,,,,,,,,N*76
$GPVTG,,,,,,,,,N*30
$GPGGA,221903.00,,,,,0,00,99.99,,,,,,*6D
$GPGSA,A,1,,,,,,,,,,,,,99.99,99.99,99.99*30
$GPGSV,2,1,06,08,,,35,10,,,43,15,,,42,20,,,39*7E
$GPGSV,2,2,06,21,,,40,26,,,38*77
$GPGLL,,,,,221903.00,V,N*41
$GPRMC,221904.00,V,,,,,,,,,,N*71
$GPVTG,,,,,,,,,N*30
$GPGGA,221904.00,,,,,0,00,99.99,,,,,,*6A
$GPGSA,A,1,,,,,,,,,,,,,99.99,99.99,99.99*30
$GPGSV,2,1,07,08,,,33,10,,,42,15,,,43,20,,,39*79
$GPGSV,2,2,07,21,,,38,26,,,38,39,,,38*78
$GPGLL,,,,,221904.00,V,N*46
$GPRMC,221905.00,V,,,,,,,,,,N*70
$GPVTG,,,,,,,,,N*30
$GPGGA,221905.00,,,,,0,00,99.99,,,,,,*6B
$GPGSA,A,1,,,,,,,,,,,,,99.99,99.99,99.99*30
$GPGSV,2,1,07,08,,,33,10,,,42,15,,,43,20,,,39*79
$GPGSV,2,2,07,21,,,39,26,,,38,39,,,43*75
$GPGLL,,,,,221905.00,V,N*47
$GPRMC,221906.00,V,,,,,,,,,,N*73
$GPVTG,,,,,,,,,N*30
$GPGGA,221906.00,,,,,0,00,99.99,,,,,,*68
$GPGSA,A,1,,,,,,,,,,,,,99.99,99.99,99.99*30
$GPGSV,2,1,07,08,,,33,10,,,41,15,,,44,20,,,39*7D
$GPGSV,2,2,07,21,,,37,26,,,38,39,,,43*7B
$GPGLL,,,,,221906.00,V,N*44
$GPRMC,221907.00,V,,,,,,,,,,N*72
$GPVTG,,,,,,,,,N*30
$GPGGA,221907.00,,,,,0,00,99.99,,,,,,*69
$GPGSA,A,1,,,,,,,,,,,,,99.99,99.99,99.99*30
$GPGSV,2,1,07,08,,,33,10,,,41,15,,,40,20,,,39*79
$GPGSV,2,2,07,21,,,40,26,,,38,39,,,44*7C
$GPGLL,,,,,221907.00,V,N*45
15.44;1022.31;38.83;15.29;1021.45;37.81;-1.45;0.08;-9.42;0.00;-0.00;-0.00;-17.15;5.36;21.28;43824;
$GPRMC,221908.00,V,,,,,,,,,,N*7D
$GPVTG,,,,,,,,,N*30
$GPGGA,221908.00,,,,,0,00,99.99,,,,,,*66
$GPGSA,A,1,,,,,,,,,,,,,99.99,99.99,99.99*30
$GPGSV,2,1,07,08,,,32,10,,,41,15,,,39,20,,,31*7E
$GPGSV,2,2,07,21,,,38,26,,,38,39,,,43*74
$GPGLL,,,,,221908.00,V,N*4A
$GPRMC,221909.00,V,,,,,,,,,,N*7C
$GPVTG,,,,,,,,,N*30
$GPGGA,221909.00,,,,,0,00,99.99,,,,,,*67
$GPGSA,A,1,,,,,,,,,,,,,99.99,99.99,99.99*30
$GPGSV,2,1,07,08,,,32,10,,,45,15,,,35,20,,,40*70
$GPGSV,2,2,07,21,,,40,26,,,40,39,,,42*75
$GPGLL,,,,,221909.00,V,N*4B
$GPRMC,221910.00,V,,,,,,,,,,N*74
$GPVTG,,,,,,,,,N*30
$GPGGA,221910.00,,,,,0,00,99.99,,,,,,*6F
$GPGSA,A,1,,,,,,,,,,,,,99.99,99.99,99.99*30
$GPGSV,2,1,08,05,,,22,08,,,28,10,,,48,15,,,45*7D
$GPGSV,2,2,08,20,,,24,21,,,36,26,,,43,39,,,42*7C
$GPGLL,,,,,221910.00,V,N*43
$GPRMC,221911.00,V,,,,,,,,,,N*75
$GPVTG,,,,,,,,,N*30
$GPGGA,221911.00,,,,,0,00,99.99,,,,,,*6E
$GPGSA,A,1,,,,,,,,,,,,,99.99,99.99,99.99*30
$GPGSV,2,1,07,08,,,28,10,,,49,15,,,45,20,,,30*77
$GPGSV,2,2,07,21,,,35,26,,,42,39,,,42*75
$GPGLL,,,,,221911.00,V,N*42
$GPRMC,221912.00,V,,,,,,,,,,N*76
$GPVTG,,,,,,,,,N*30
$GPGGA,221912.00,,,,,0,00,99.99,,,,,,*6D
$GPGSA,A,1,,,,,,,,,,,,,99.99,99.99,99.99*30
$GPGSV,2,1,07,08,,,28,10,,,49,15,,,45,20,,,29*7F
$GPGSV,2,2,07,21,,,35,26,,,42,39,,,43*74
$GPGLL,,,,,221912.00,V,N*41
15.12;1022.22;40.45;14.00;1021.36;40.12;-1.46;0.09;-9.44;-0.00;-0.00;-0.00;-16.08;4.29;19.56;49206;
$GPRMC,221913.00,V,,,,,,,,,,N*77
$GPVTG,,,,,,,,,N*30
$GPGGA,221913.00,,,,,0,00,99.99,,,,,,*6C
$GPGSA,A,1,,,,,,,,,,,,,99.99,99.99,99.99*30
$GPGSV,2,1,07,08,,,27,10,,,49,15,,,45,20,,,28*71
$GPGSV,2,2,07,21,,,35,26,,,42,39,,,43*74
$GPGLL,,,,,221913.00,V,N*40
$GPRMC,221914.00,V,,,,,,,,,,N*70
$GPVTG,,,,,,,,,N*30
$GPGGA,221914.00,,,,,0,00,99.99,,,,,,*6B
$GPGSA,A,1,,,,,,,,,,,,,99.99,99.99,99.99*30
$GPGSV,2,1,07,08,,,27,10,,,49,15,,,45,20,,,26*7F
$GPGSV,2,2,07,21,,,35,26,,,42,39,,,43*74
$GPGLL,,,,,221914.00,V,N*47
$GPRMC,221915.00,V,,,,,,,,,,N*71
$GPVTG,,,,,,,,,N*30
$GPGGA,221915.00,,,,,0,00,99.99,,,,,,*6A
$GPGSA,A,1,,,,,,,,,,,,,99.99,99.99,99.99*30
$GPGSV,2,1,08,08,,,27,10,,,49,13,,,37,15,,,45*70
$GPGSV,2,2,08,20,,,25,21,,,35,26,,,42,39,,,43*7E
$GPGLL,,,,,221915.00,V,N*46
$GPRMC,221916.00,V,,,,,,,,,,N*72
$GPVTG,,,,,,,,,N*30
$GPGGA,221916.00,,,,,0,00,99.99,,,,,,*69
$GPGSA,A,1,,,,,,,,,,,,,99.99,99.99,99.99*30
$GPGSV,2,1,08,08,,,28,10,,,49,13,,,36,15,,,45*7E
$GPGSV,2,2,08,20,,,24,21,,,35,26,,,42,39,,,43*7F
$GPGLL,,,,,221916.00,V,N*45
$GPRMC,221914.01,V,,,,,,,070220,,,N*76
$GPVTG,,,,,,,,,N*30
$GPGGA,221914.01,,,,,0,07,10.34,,,,,,*6B
$GPGSA,A,1,21,26,20,08,10,13,15,,,,,,11.73,10.34,5.56*0E
$GPGSV,4,1,13,07,15,306,,08,41,292,28,10,49,142,49,11,12,265,*72
$GPGSV,4,2,13,13,07,017,36,15,13,045,45,16,47,193,,20,54,089,23*71
$GPGSV,4,3,13,21,35,069,35,26,24,179,42,27,78,290,33,30,08,336,*77
$GPGSV,4,4,13,39,27,159,43*4E
$GPGLL,,,,,221914.01,V,N*46
$GPRMC,221915.00,V,,,,,,,070220,,,N*76
$GPVTG,,,,,,,,,N*30
$GPGGA,221915.00,,,,,0,04,10.32,,,,,,*6E
$GPGSA,A,1,21,20,10,15,,,,,,,,,11.72,10.32,5.56*07
$GPGSV,4,1,13,07,15,306,22,08,41,292,28,10,49,142,49,11,12,265,29*79
$GPGSV,4,2,13,13,07,017,36,15,13,045,45,16,47,193,,20,54,089,21*73
$GPGSV,4,3,13,21,35,069,35,26,24,179,42,27,78,290,34,30,08,336,21*73
14.36;1022.27;41.91;12.81;1021.43;42.43;-1.45;0.09;-9.44;0.00;-0.00;-0.00;-16.61;4.82;21.79;54647;
$GPGSV,4,4,13,39,27,159,42*4F
$GPGLL,,,,,221915.00,V,N*46
$GPRMC,221916.00,V,,,,,,,070220,,,N*75
$GPVTG,,,,,,,,,N*30
$GPGGA,221916.00,,,,,0,04,10.31,,,,,,*6E
$GPGSA,A,1,21,20,10,15,,,,,,,,,11.71,10.31,5.56*07
$GPGSV,4,1,13,07,15,306,24,08,41,292,29,10,49,142,49,11,12,265,29*7E
$GPGSV,4,2,13,13,07,017,36,15,13,045,45,16,47,193,32,20,54,089,20*73
$GPGSV,4,3,13,21,35,069,34,26,24,179,42,27,78,290,34,30,08,336,22*71
$GPGSV,4,4,13,39,27,159,43*4E
$GPGLL,,,,,221916.00,V,N*45
$GPRMC,221917.00,V,,,,,,,070220,,,N*74
$GPVTG,,,,,,,,,N*30
$GPGGA,221917.00,,,,,0,04,10.30,,,,,,*6E
$GPGSA,A,1,21,20,10,15,,,,,,,,,11.70,10.30,5.55*04
$GPGSV,4,1,13,07,15,306,25,08,41,292,29,10,49,142,48,11,12,265,30*76
$GPGSV,4,2,13,13,07,017,36,15,13,045,45,16,47,193,32,20,54,089,20*73
$GPGSV,4,3,13,21,35,069,34,26,24,179,41,27,78,290,35,30,08,336,21*70
$GPGSV,4,4,13,39,27,159,43*4E
$GPGLL,,,,,221917.00,V,N*44
$GPRMC,221918.00,V,,,,,,,070220,,,N*7B
$GPVTG,,,,,,,,,N*30
$GPGGA,221918.00,,,,,0,04,10.28,,,,,,*68
$GPGSA,A,1,21,20,10,15,,,,,,,,,11.69,10.28,5.55*05
$GPGSV,4,1,13,07,15,306,26,08,41,292,30,10,49,142,48,11,12,265,30*7D
$GPGSV,4,2,13,13,07,017,36,15,13,045,45,16,47,193,32,20,54,089,21*72
$GPGSV,4,3,13,21,35,069,33,26,24,179,41,27,78,290,36,30,08,336,21*74
$GPGSV,4,4,13,39,27,159,43*4E
$GPGLL,,,,,221918.00,V,N*4B
$GPRMC,221919.00,V,,,,,,,070220,,,N*7A
$GPVTG,,,,,,,,,N*30
$GPGGA,221919.00,,,,,0,04,10.27,,,,,,*66
$GPGSA,A,1,21,20,10,15,,,,,,,,,11.68,10.27,5.55*0B
$GPGSV,4,1,13,07,15,306,26,08,41,292,31,10,49,142,48,11,12,265,31*7D
$GPGSV,4,2,13,13,07,017,36,15,13,045,45,16,47,193,32,20,54,089,23*70
$GPGSV,4,3,13,21,35,069,33,26,24,179,41,27,78,290,37,30,08,336,20*74
$GPGSV,4,4,13,39,27,159,43*4E
$GPGLL,,,,,221919.00,V,N*4A
$GPRMC,221920.00,V,,,,,,,070220,,,N*70
$GPVTG,,,,,,,,,N*30
$GPGGA,221920.00,,,,,0,04,10.26,,,,,,*6D
$GPGSA,A,1,21,20,10,15,,,,,,,,,11.67,10.26,5.55*05
$GPGSV,4,1,13,07,15,306,26,08,42,292,31,10,49,142,48,11,12,265,31*7E
$GPGSV,4,2,13,13,07,017,36,15,13,045,45,16,47,193,31,20,54,089,24*74
$GPGSV,4,3,13,21,35,069,32,26,24,179,41,27,78,290,37,30,08,336,19*7F
$GPGSV,4,4,13,39,27,159,43*4E
$GPGLL,,,,,221920.00,V,N*40
13.90;1022.23;43.04;11.93;1021.40;44.68;-1.47;0.11;-9.43;-0.00;-0.00;-0.00;-15.18;4.11;22.14;60033;
$GPRMC,221921.00,V,,,,,,,070220,,,N*71
$GPVTG,,,,,,,,,N*30
$G,265,31*7C
$GPGSV,4,2,13,13,07,017,36,15,13,045,45,16,47,193,31,20,54,089,26*76
$GPGSV,4,3,13,21,35,069,31,26,24,179,41,27,78,290,37,30,08,336,17*72
$GPGSV,4,4,13,39,27,159,43*4E
$GPGLL,,,,,221921.00,V,N*41
$GPRMC,221922.00,V,,,,,,,070220,,,N*72
$GPVTG,,,,,,,,,N*30
$GPGGA,221922.00,,,,,0,04,10.23,,,,,,*6A
$GPGSA,A,1,21,20,10,15,,,,,,,,,11.64,10.23,5.55*03
$GPGSV,4,1,13,07,15,306,26,08,42,292,32,10,49,142,49,11,12,265,31*7C
$GPGSV,4,2,13,13,07,017,36,15,13,045,45,16,47,193,30,20,54,089,26*77
$GPGSV,4,3,13,21,35,069,30,26,24,179,41,27,78,290,37,30,08,336,14*70
$GPGSV,4,4,13,39,27,159,43*4E
$GPGLL,,,,,221922.00,V,N*42
$GPRMC,221923.00,V,,,,,,,070220,,,N*73
$GPVTG,,,,,,,,,N*30
$GPGGA,221923.00,,,,,0,04,10.22,,,,,,*6A
$GPGSA,A,1,21,20,10,15,,,,,,,,,11.63,10.22,5.55*05
$GPGSV,4,1,13,07,15,306,26,08,42,292,32,10,49,142,49,11,12,265,31*7C
$GPGSV,4,2,13,13,07,017,37,15,13,045,44,16,47,193,30,20,54,089,27*76
$GPGSV,4,3,13,21,35,069,29,26,24,179,41,27,78,290,36,30,08,336,09*75
$GPGSV,4,4,13,39,27,159,43*4E
$GPGLL,,,,,221923.00,V,N*43
$GPRMC,221924.00,V,,,,,,,070220,,,N*74
$GPVTG,,,,,,,,,N*30
$GPGGA,221924.00,,,,,0,04,10.21,,,,,,*6E
$GPGSA,A,1,21,20,10,15,,,,,,,,,11.62,10.21,5.55*07
$GPGSV,4,1,13,07,15,306,25,08,42,292,32,10,49,142,49,11,12,265,30*7E
$GPGSV,4,2,13,13,07,017,36,15,13,045,44,16,47,193,30,20,54,089,26*76
$GPGSV,4,3,13,21,35,069,28,26,24,179,40,27,78,290,36,30,08,336,*7C
$GPGSV,4,4,13,39,27,159,43*4E
$GPGLL,,,,,221924.00,V,N*44
13.66;1022.22;43.76;11.14;1021.39;46.41;-1.46;0.10;-9.40;0.00;-0.00;-0.00;-16.08;2.86;22.31;64278;2020/02/07;22:19:25.00;53.14312;8.22127;1000000.00;3.67;255
$GPRMC,221925.00,A,5308.58729,N,00813.27599,E,1.982,287.15,070220,,,A*68
$GPVTG,287.15,T,,M,1.982,N,3.670,K,A*34
13.62;1022.25;43.91;10.82;1021.39;46.85;-1.46;0.10;-9.41;0.00;-0.00;-0.00;-16.26;5.54;21.45;65271;2020/02/07;22:19:26.00;53.14313;8.22125;1000000.00;5.15;255
$GPGGA,221925.00,5308$GPRMC,221926.00,A,5308.58779,N,00813.27503,E,2.787,240.75,070220,,,A*68
$GPVTG,240.75,T,,M,2.787,N,5.162,K,A*33
13.48;1022.22;44.07;10.71;1021.40;47.25;-1.47;0.09;-9.40;0.00;-0.00;-0.00;-16.26;4.11;21.79;66271;2020/02/07;22:19:27.00;53.14314;8.22124;1000000.00;3.74;255
$GPGGA,221926.00,5308$GPRMC,221927.00,A,5308.58874,N,00813.27455,E,2.023,232.38,070220,,,A*6C
$GPVTG,232.38,T,,M,2.023,N,3.747,K,A*31
13.31;1022.24;44.26;10.59;1021.40;47.72;-1.47;0.11;-9.44;0.00;-0.00;-0.00;-17.15;4.29;22.31;67328;2020/02/07;22:19:28.00;53.14315;8.22124;1000000.00;3.85;255
$GPGGA,221927.00,5308$GPRMC,221928.00,A,5308.58943,N,00813.27455,E,2.084,227.17,070220,,,A*62
$GPVTG,227.17,T,,M,2.084,N,3.859,K,A*35
13.23;1022.27;44.46;10.43;1021.40;48.09;-1.46;0.11;-9.40;0.00;-0.00;-0.00;-16.61;4.47;19.74;68265;2020/02/07;22:19:29.00;53.14317;8.22124;1000000.00;1.72;255
$GPGGA,221928.00,5308$GPRMC,221929.00,A,5308.58994,N,00813.27427,E,0.939,,070220,,,A*7E
$GPVTG,,T,,M,0.939,N,1.738,K,A*2D
13.12;1022.28;44.66;10.35;1021.41;48.47;-1.46;0.11;-9.39;0.00;-0.00;-0.00;-17.15;3.93;21.28;69264;2020/02/07;22:19:30.00;53.14318;8.22123;1000000.00;1.00;255
$GPGGA,221929.00,5308.58994$GPRMC,221930.00,A,5308.59061,N,00813.27385,E,0.542,,070220,,,A*7B
$GPVTG,,T,,M,0.542,N,1.003,K,A*22
13.03;1022.26;44.88;10.21;1021.40;48.86;-1.45;0.11;-9.40;0.00;-0.00;-0.00;-16.26;3.75;22.48;70305;2020/02/07;22:19:31.00;53.14349;8.22140;1000000.00;0.67;255
$GPGGA,221930.00,5308.59061$GPRMC,221931.00,A,5308.60925,N,00813.28384,E,0.362,,070220,,,A*73
$GPVTG,,T,,M,0.362,N,0.671,K,A*24
12.83;1022.28;45.09;10.12;1021.42;49.19;-1.46;0.09;-9.41;0.00;-0.00;-0.00;-16.26;4.82;22.14;71279;2020/02/07;22:19:32.00;53.14352;8.22138;1000000.00;0.39;255
$GPGGA,221931.00,5308.60925$GPRMC,221932.00,A,5308.61152,N,00813.28305,E,0.214,,070220,,,A*70
$GPVTG,,T,,M,0.214,N,0.396,K,A*28
12.76;1022.27;45.33;9.96;1021.40;49.60;-1.47;0.10;-9.40;0.00;-0.00;-0.00;-16.43;3.93;21.97;72280;2020/02/07;22:19:33.00;53.14354;8.22137;1000000.00;0.74;255
$GPGGA,221932.00,5308.61152$GPRMC,221933.00,A,5308.61261,N,00813.28224,E,0.402,,070220,,,A*71
$GPVTG,,T,,M,0.402,N,0.745,K,A*23
12.68;1022.28;45.58;9.82;1021.40;49.94;-1.47;0.11;-9.39;0.00;-0.00;-0.00;-16.79;5.36;23.00;73281;2020/02/07;22:19:34.00;53.14355;8.22136;1000000.00;0.17;255
$GPGGA,221933.00,5308.61261$GPRMC,221934.00,A,5308.61315,N,00813.28157,E,0.092,,070220,,,A*7E
$GPVTG,,T,,M,0.092,N,0.171,K,A*2F
12.37;1022.30;45.87;9.66;1021.42;50.29;-1.47;0.10;-9.37;0.00;-0.00;-0.00;-15.72;4.29;21.97;74284;2020/02/07;22:19:35.00;53.14356;8.22135;1000000.00;0.37;255
$GPGGA,221934.00,5308.61315$GPRMC,221935.00,A,5308.61355,N,00813.28091,E,0.209,,070220,,,A*70
$GPVTG,,T,,M,0.209,N,0.387,K,A*24
12.14;1022.27;46.19;9.49;1021.41;50.68;-1.46;0.09;-9.40;0.00;-0.00;-0.00;-14.47;3.39;21.11;75281;2020/02/07;22:19:36.00;53.14356;8.22134;1000000.00;0.57;255
$GPGGA,221935.00,5308.61355$GPRMC,221936.00,A,5308.61394,N,00813.28030,E,0.316,,070220,,,A*7A
$GPVTG,,T,,M,0.316,N,0.586,K,A*2C
12.14;1022.23;46.52;9.37;1021.44;51.08;-1.45;0.11;-9.42;0.00;-0.00;-0.00;-16.08;3.57;20.59;76280;2020/02/07;22:19:37.00;53.14357;8.22134;1000000.00;1.13;255
$GPGGA,221936.00,5308.61394$GPRMC,221937.00,A,5308.61427,N,00813.28014,E,0.611,,070220,,,A*70
$GPVTG,,T,,M,0.611,N,1.132,K,A*24
12.31;1022.24;46.72;9.22;1021.38;51.45;-1.45;0.09;-9.39;0.00;-0.00;-0.00;-18.04;4.47;20.42;77279;2020/02/07;22:19:38.00;53.14358;8.22134;1000000.00;0.06;255
$GPGGA,221937.00,5308.61427$GPRMC,221938.00,A,5308.61451,N,00813.28017,E,0.037,,070220,,,A*7F
$GPVTG,,T,,M,0.037,N,0.069,K,A*28
12.10;1022.20;46.93;9.12;1021.38;51.83;-1.48;0.10;-9.37;0.00;-0.00;-0.00;-16.08;3.57;21.28;78280;2020/02/07;22:19:39.00;53.14358;8.22133;1000000.00;0.81;255
$GPGGA,221938.00,5308.61451$GPRMC,221939.00,A,5308.61477,N,00813.27992,E,0.448,,070220,,,A*7D
$GPVTG,,T,,M,0.448,N,0.829,K,A*28
12.12;1022.20;47.12;8.98;1021.44;52.21;-1.47;0.11;-9.37;0.00;-0.00;-0.00;-17.15;5.00;21.28;79281;2020/02/07;22:19:40.00;53.14358;8.22133;1000000.00;0.31;255
$GPGGA,221939.00,5308.61477$GPRMC,221940.00,A,5308.61501,N,00813.27969,E,0.172,,070220,,,A*7B
$GPVTG,,T,,M,0.172,N,0.318,K,A*2D
11.97;1022.25;47.33;8.84;1021.39;52.55;-1.47;0.11;-9.38;0.00;-0.00;-0.00;-17.33;3.75;21.45;80281;2020/02/07;22:19:41.00;53.14358;8.22133;1000000.00;0.11;255
$GPGGA,221940.00,5308.61501$GPRMC,221941.00,A,5308.61513,N,00813.27978,E,0.066,,070220,,,A*7D
$GPVTG,,T,,M,0.066,N,0.122,K,A*22
11.69;1022.28;47.60;8.69;1021.44;52.98;-1.46;0.11;-9.35;0.00;-0.00;-0.00;-15.36;4.29;21.28;81280;2020/02/07;22:19:42.00;53.14359;8.22133;1000000.00;0.07;255
$GPGGA,221941.00,5308.61513$GPRMC,221942.00,A,5308.61522,N,00813.27977,E,0.049,,070220,,,A*7E
$GPVTG,,T,,M,0.049,N,0.090,K,A*27
11.42;1022.36;47.92;8.50;1021.43;53.36;-1.47;0.11;-9.36;0.00;-0.00;-0.00;-16.61;3.04;22.48;82281;2020/02/07;22:19:43.00;53.14359;8.22132;1000000.00;2.00;255
$GPGGA,221942.00,5308.61522$GPRMC,221943.00,A,5308.61541,N,00813.27942,E,1.088,,070220,,,A*70
$GPVTG,,T,,M,1.088,N,2.016,K,A*27
11.23;1022.31;48.32;8.29;1021.48;53.81;-1.48;0.10;-9.34;0.00;-0.00;-0.00;-16.61;4.47;20.76;83283;2020/02/07;22:19:44.00;53.14359;8.22132;1000000.00;0.87;255
$GPGGA,221943.00,5308.61541$GPRMC,221944.00,A,5308.61557,N,00813.27914,E,0.470,,070220,,,A*71
$GPVTG,,T,,M,0.470,N,0.871,K,A*2E
11.20;1022.35;48.63;8.15;1021.47;54.25;-1.47;0.12;-9.35;0.00;-0.00;-0.00;-16.61;4.47;21.79;84280;2020/02/07;22:19:45.00;53.14359;8.22132;1000000.00;0.37;255
$GPGGA,221944.00,5308.61557$GPRMC,221945.00,A,5308.61559,N,00813.27909,E,0.205,,070220,,,A*76
$GPVTG,,T,,M,0.205,N,0.380,K,A*2F
10.98;1022.36;48.97;8.00;1021.50;54.67;-1.49;0.11;-9.35;0.00;-0.00;-0.00;-15.72;4.64;21.97;85285;2020/02/07;22:19:46.00;53.14360;8.22129;1000000.00;10.45;255
$GPGGA,221945.00,5308.61559$GPRMC,221946.00,A,5308.61603,N,00813.27766,E,5.644,275.24,070220,,,A*62
$GPVTG,275.24,T,,M,5.644,N,10.454,K,A*0C
11.04;1022.34;49.25;7.92;1021.50;55.08;-1.48;0.11;-9.36;0.00;-0.00;-0.00;-16.61;3.04;20.08;86286;2020/02/07;22:19:47.00;53.14360;8.22129;1000000.00;2.44;255
$GPGGA,221946.00,530$GPRMC,221947.00,A,5308.61599,N,00813.27718,E,1.323,280.57,070220,,,A*64
$GPVTG,280.57,T,,M,1.323,N,2.449,K,A*3D
11.08;1022.35;49.49;7.84;1021.50;55.46;-1.48;0.11;-9.34;0.00;-0.00;-0.00;-16.79;3.93;22.31;87285;2020/02/07;22:19:48.00;53.14360;8.22129;1000000.00;1.98;255
$GPGGA,221947.00,5308$GPRMC,221948.00,A,5308.61585,N,00813.27725,E,1.079,288.34,070220,,,A*69
$GPVTG,288.34,T,,M,1.079,N,1.997,K,A*31
11.04;1022.34;49.67;7.74;1021.48;55.89;-1.47;0.11;-9.34;0.00;-0.00;-0.00;-15.72;4.64;21.97;88278;2020/02/07;22:19:49.00;53.14360;8.22129;1000000.00;0.33;255
$GPGGA,221948.00,5308$GPRMC,221949.00,A,5308.61581,N,00813.27746,E,0.185,,070220,,,A*71
$GPVTG,,T,,M,0.185,N,0.342,K,A*2A
10.92;1022.36;49.87;7.69;1021.48;56.20;-1.47;0.12;-9.33;0.00;-0.00;-0.00;-16.08;3.22;21.97;89280;2020/02/07;22:19:50.00;53.14360;8.22130;1000000.00;0.69;255
$GPGGA,221949.00,5308.61581$GPRMC,221950.00,A,5308.61567,N,00813.27777,E,0.374,,070220,,,A*7F
$GPVTG,,T,,M,0.374,N,0.692,K,A*2E
10.75;1022.33;50.16;7.57;1021.57;56.56;-1.47;0.11;-9.34;0.00;-0.00;-0.00;-16.97;4.47;22.48;90290;2020/02/07;22:19:51.00;53.14359;8.22129;1000000.00;2.32;255
$GPGGA,221950.00,5308.61567$GPRMC,221951.00,A,5308.61566,N,00813.27765,E,1.254,291.34,070220,,,A*6D
$GPVTG,291.34,T,,M,1.254,N,2.323,K,A*32
10.60;1022.37;50.42;7.47;1021.55;56.90;-1.48;0.09;-9.34;0.00;-0.00;-0.00;-15.54;3.04;21.79;91282;2020/02/07;22:19:52.00;53.14360;8.22129;1000000.00;0.24;255
$GPGGA,221951.00,5308$GPRMC,221952.00,A,5308.61568,N,00813.27763,E,0.133,,070220,,,A*76
$GPVTG,,T,,M,0.133,N,0.247,K,A*23
10.57;1022.35;50.68;7.40;1021.54;57.24;-1.49;0.12;-9.31;0.00;-0.00;-0.00;-18.04;4.82;23.17;92286;2020/02/07;22:19:53.00;53.14359;8.22130;1000000.00;1.44;255
$GPGGA,221952.00,5308.61568$GPRMC,221953.00,A,5308.61557,N,00813.27803,E,0.780,185.20,070220,,,A*6C
$GPVTG,185.20,T,,M,0.780,N,1.445,K,A*38
10.65;1022.35;50.88;7.19;1021.58;57.64;-1.46;0.11;-9.34;0.00;-0.00;-0.00;-16.43;4.29;23.00;93280;2020/02/07;22:19:54.00;53.14359;8.22130;1000000.00;0.13;255
$GPGGA,221953.00,5308$GPRMC,221954.00,A,5308.61553,N,00813.27812,E,0.075,,070220,,,A*72
$GPVTG,,T,,M,0.075,N,0.138,K,A*2B
10.65;1022.36;51.07;7.01;1021.54;58.08;-1.46;0.10;-9.31;0.00;-0.00;-0.00;-16.26;4.47;20.42;94280;2020/02/07;22:19:55.00;53.14359;8.22130;1000000.00;0.00;255
$GPGGA,221954.00,5308.61553$GPRMC,221955.00,A,5308.61558,N,00813.27805,E,0.002,,070220,,,A*7E
$GPVTG,,T,,M,0.002,N,0.004,K,A*25
10.59;1022.33;51.22;6.86;1021.52;58.50;-1.48;0.11;-9.32;0.00;-0.00;-0.00;-15.90;3.39;22.14;95280;2020/02/07;22:19:56.00;53.14360;8.22130;1000000.00;0.70;255
$GPGGA,221955.00,5308.61558$GPRMC,221956.00,A,5308.61570,N,00813.27783,E,0.388,,070220,,,A*77
$GPVTG,,T,,M,0.388,N,0.719,K,A*2F
10.50;1022.33;51.40;6.72;1021.50;58.96;-1.47;0.12;-9.31;0.00;-0.00;-0.00;-16.08;3.57;21.28;96283;2020/02/07;22:19:57.00;53.14360;8.22129;1000000.00;1.39;255
$GPGGA,221956.00,5308.61570$GPRMC,221957.00,A,5308.61584,N,00813.27758,E,0.757,241.18,070220,,,A*6D
$GPVTG,241.18,T,,M,0.757,N,1.401,K,A*32
10.35;1022.27;51.58;6.57;1021.46;59.39;-1.46;0.11;-9.29;0.00;-0.00;-0.00;-17.69;4.47;21.11;97284;2020/02/07;22:19:58.00;53.14360;8.22129;1000000.00;0.41;255
$GPGGA,221957.00,5308$GPRMC,221958.00,A,5308.61592,N,00813.27742,E,0.220,,070220,,,A*7B
$GPVTG,,T,,M,0.220,N,0.407,K,A*20
10.30;1022.31;51.81;6.46;1021.52;59.85;-1.47;0.11;-9.30;0.00;-0.00;-0.00;-17.15;4.64;21.62;98280;2020/02/07;22:19:59.00;53.14360;8.22129;1000000.00;1.17;255
$GPGGA,221958.00,5308.61592$GPRMC,221959.00,A,5308.61603,N,00813.27722,E,0.639,,070220,,,A*7B
$GPVTG,,T,,M,0.639,N,1.183,K,A*24
10.20;1022.28;52.01;6.33;1021.50;60.28;-1.49;0.12;-9.29;0.00;-0.00;-0.00;-17.33;3.39;22.82;99279;2020/02/07;22:20:00.00;53.14360;8.22128;1000000.00;1.09;255
$GPGGA,221959.00,5308.61603$GPRMC,222000.00,A,5308.61618,N,00813.27694,E,0.595,,070220,,,A*7E
$GPVTG,,T,,M,0.595,N,1.103,K,A*29
10.07;1022.27;52.23;6.23;1021.50;60.71;-1.50;0.12;-9.28;0.00;-0.00;-0.00;-16.43;4.64;21.97;100289;2020/02/07;22:20:01.00;53.14360;8.22128;1000000.00;0.41;255
$GPGGA,222000.00,5308.61618$GPRMC,222001.00,A,5308.61616,N,00813.27703,E,0.220,,070220,,,A*77
$GPVTG,,T,,M,0.220,N,0.408,K,A*2F
9.96;1022.26;52.46;6.10;1021.52;61.16;-1.48;0.12;-9.28;0.00;-0.00;-0.00;-15.90;4.11;22.48;101281;2020/02/07;22:20:02.00;53.14360;8.22128;1000000.00;1.19;255
$GPGGA,222001.00,5308.61616$GPRMC,222002.00,A,5308.61617,N,00813.27704,E,0.641,,070220,,,A*71
$GPVTG,,T,,M,0.641,N,1.187,K,A*2F
9.89;1022.26;52.69;6.02;1021.54;61.56;-1.48;0.12;-9.25;0.00;-0.00;-0.00;-16.26;5.18;21.45;102282;2020/02/07;22:20:03.00;53.14360;8.22129;1000000.00;0.28;255
$GPGGA,222002.00,5308.61617$GPRMC,222003.00,A,5308.61610,N,00813.27722,E,0.150,,070220,,,A*74
$GPVTG,,T,,M,0.150,N,0.278,K,A*2A
9.81;1022.28;52.91;5.91;1021.50;62.03;-1.48;0.11;-9.30;0.00;-0.00;-0.00;-16.08;3.93;22.31;103282;2020/02/07;22:20:04.00;53.14360;8.22129;1000000.00;0.70;255
$GPGGA,222003.00,5308.61610$GPRMC,222004.00,A,5308.61605,N,00813.27734,E,0.388,,070220,,,A*77
$GPVTG,,T,,M,0.388,N,0.719,K,A*2F
9.78;1022.32;53.12;5.85;1021.48;62.37;-1.48;0.13;-9.27;0.00;-0.00;-0.00;-16.79;5.36;23.34;104284;2020/02/07;22:20:05.00;53.14360;8.22129;1000000.00;0.80;255
$GPGGA,222004.00,5308.61605$GPRMC,222005.00,A,5308.61602,N,00813.27735,E,0.436,256.22,070220,,,A*6D
$GPVTG,256.22,T,,M,0.436,N,0.807,K,A*32
9.65;1022.31;53.36;5.73;1021.53;62.75;-1.50;0.12;-9.28;0.00;-0.00;-0.00;-16.97;3.75;21.79;105283;2020/02/07;22:20:06.00;53.14360;8.22129;1000000.00;0.46;255
$GPGGA,222005.00,5308$GPRMC,222006.00,A,5308.61598,N,00813.27754,E,0.254,,070220,,,A*74
$GPVTG,,T,,M,0.254,N,0.470,K,A*23
9.54;1022.36;53.59;5.63;1021.60;63.18;-1.48;0.12;-9.29;0.00;-0.00;-0.00;-17.33;3.39;22.14;106292;2020/02/07;22:20:07.00;53.14360;8.22129;1000000.00;2.76;255
$GPGGA,222006.00,5308.61598$GPRMC,222007.00,A,5308.61611,N,00813.27754,E,1.495,288.94,070220,,,A*6C
$GPVTG,288.94,T,,M,1.495,N,2.768,K,A*30
9.48;1022.34;53.83;5.57;1021.53;63.55;-1.47;0.12;-9.23;0.00;-0.00;-0.00;-17.15;3.22;23.00;107286;2020/02/07;22:20:08.00;53.14360;8.22130;1000000.00;1.93;255
$GPGGA,222007.00,5308$GPRMC,222008.00,A,5308.61604,N,00813.27781,E,1.047,300.10,070220,,,A*69
$GPVTG,300.10,T,,M,1.047,N,1.938,K,A*3E
9.42;1022.34;54.06;5.51;1021.48;63.94;-1.50;0.12;-9.25;0.00;-0.00;-0.00;-15.90;4.47;22.14;108278;2020/02/07;22:20:09.00;53.14360;8.22131;1000000.00;0.22;255
$GPGGA,222008.00,5308$GPRMC,222009.00,A,5308.61580,N,00813.27849,E,0.120,,070220,,,A*71
$GPVTG,,T,,M,0.120,N,0.222,K,A*22
9.30;1022.29;54.33;5.43;1021.53;64.28;-1.49;0.11;-9.26;0.00;-0.00;-0.00;-16.08;3.22;22.65;109279;2020/02/07;22:20:10.00;53.14359;8.22132;1000000.00;0.43;255
$GPGGA,222009.00,5308.61580$GPRMC,222010.00,A,5308.61558,N,00813.27913,E,0.231,,070220,,,A*71
$GPVTG,,T,,M,0.231,N,0.427,K,A*22
9.27;1022.34;54.56;5.37;1021.51;64.62;-1.50;0.12;-9.25;0.00;-0.00;-0.00;-17.15;3.93;22.31;110278;2020/02/07;22:20:11.00;53.14359;8.22133;1000000.00;0.43;255
$GPGGA,222010.00,5308.61558$GPRMC,222011.00,A,5308.61541,N,00813.27970,E,0.235,,070220,,,A*79
$GPVTG,,T,,M,0.235,N,0.435,K,A*25
9.20;1022.26;54.78;5.37;1021.42;65.01;-1.48;0.13;-9.22;0.00;-0.00;-0.00;-16.43;3.93;21.28;111280;2020/02/07;22:20:12.00;53.14359;8.22134;1000000.00;0.07;255
$GPGGA,222011.00,5308.61541$GPRMC,222012.00,A,5308.61526,N,00813.28016,E,0.041,,070220,,,A*7C
$GPVTG,,T,,M,0.041,N,0.076,K,A*27
9.16;1022.29;54.98;5.38;1021.45;65.21;-1.49;0.12;-9.25;0.00;-0.00;-0.00;-16.97;3.39;21.11;112275;2020/02/07;22:20:13.00;53.14358;8.22134;1000000.00;0.56;255
$GPGGA,222012.00,5308.61526$GPRMC,222013.00,A,5308.61503,N,00813.28067,E,0.303,,070220,,,A*79
$GPVTG,,T,,M,0.303,N,0.561,K,A*21
9.13;1022.30;55.17;5.37;1021.42;65.47;-1.50;0.12;-9.25;0.00;-0.00;-0.00;-15.72;3.22;21.28;113283;2020/02/07;22:20:14.00;53.14358;8.22135;1000000.00;0.17;255
$GPGGA,222013.00,5308.61503$GPRMC,222014.00,A,5308.61490,N,00813.28106,E,0.092,,070220,,,A*78
$GPVTG,,T,,M,0.092,N,0.170,K,A*2E
9.07;1022.29;55.36;5.36;1021.44;65.65;-1.49;0.12;-9.26;0.00;-0.00;-0.00;-16.08;3.93;20.94;114279;2020/02/07;22:20:15.00;53.14358;8.22136;1000000.00;0.11;255
$GPGGA,222014.00,5308.61490$GPRMC,222015.00,A,5308.61479,N,00813.28147,E,0.065,,070220,,,A*73
$GPVTG,,T,,M,0.065,N,0.120,K,A*23
9.09;1022.30;55.53;5.31;1021.43;65.84;-1.50;0.12;-9.22;0.00;-0.00;-0.00;-15.72;2.50;23.00;115280;2020/02/07;22:20:16.00;53.14358;8.22136;1000000.00;0.76;255
$GPGGA,222015.00,5308.61479$GPRMC,222016.00,A,5308.61472,N,00813.28190,E,0.412,,070220,,,D*70
$GPVTG,,T,,M,0.412,N,0.762,K,D*22
9.07;1022.31;55.67;5.26;1021.45;66.05;-1.51;0.14;-9.22;0.00;-0.00;-0.00;-15.90;4.47;22.14;116280;2020/02/07;22:20:17.00;53.14358;8.22137;1000000.00;0.48;255
$GPGGA,222016.00,5308.61472$GPRMC,222017.00,A,5308.61466,N,00813.28241,E,0.268,,070220,,,D*70
$GPVTG,,T,,M,0.268,N,0.496,K,D*21
9.05;1022.33;55.81;5.21;1021.46;66.28;-1.49;0.11;-9.24;0.00;-0.00;-0.00;-16.61;4.11;22.82;117280;2020/02/07;22:20:18.00;53.14358;8.22138;1000000.00;0.15;255
$GPGGA,222017.00,5308.61466$GPRMC,222018.00,A,5308.61466,N,00813.28287,E,0.080,,070220,,,D*71
$GPVTG,,T,,M,0.080,N,0.148,K,D*23
9.05;1022.32;55.94;5.18;1021.46;66.44;-1.49;0.12;-9.24;0.00;-0.00;-0.00;-15.54;4.47;22.48;118289;2020/02/07;22:20:19.00;53.14358;8.22139;1000000.00;0.11;255
$GPGGA,222018.00,5308.61466$GPRMC,222019.00,A,5308.61459,N,00813.28347,E,0.068,,070220,,,D*77
$GPVTG,,T,,M,0.068,N,0.126,K,D*2D
9.01;1022.33;56.07;5.14;1021.47;66.69;-1.52;0.13;-9.24;0.00;-0.00;-0.00;-16.61;1.97;22.48;119289;2020/02/07;22:20:20.00;53.14358;8.22140;1000000.00;0.48;255
$GPGGA,222019.00,5308.61459$GPRMC,222020.00,A,5308.61446,N,00813.28422,E,0.267,,070220,,,D*7A
$GPVTG,,T,,M,0.267,N,0.494,K,D*2C
8.99;1022.29;56.18;5.12;1021.48;66.87;-1.50;0.13;-9.24;0.00;-0.00;-0.00;-15.72;2.50;21.97;120284;2020/02/07;22:20:21.00;53.14357;8.22142;1000000.00;0.06;255
$GPGGA,222020.00,5308.61446$GPRMC,222021.00,A,5308.61432,N,00813.28494,E,0.036,,070220,,,D*73
$GPVTG,,T,,M,0.036,N,0.068,K,D*2D
8.96;1022.33;56.28;5.11;1021.45;67.06;-1.51;0.14;-9.24;0.00;-0.00;-0.00;-16.43;3.22;22.31;121284;2020/02/07;22:20:22.00;53.14357;8.22142;1000000.00;0.11;255
$GPGGA,222021.00,5308.61432$GPRMC,222022.00,A,5308.61438,N,00813.28508,E,0.067,,070220,,,D*7A
$GPVTG,,T,,M,0.067,N,0.123,K,D*27
8.96;1022.33;56.39;5.11;1021.48;67.21;-1.50;0.13;-9.26;0.00;-0.00;-0.00;-16.08;3.93;22.65;122285;2020/02/07;22:20:23.00;53.14358;8.22142;1000000.00;0.04;255
$GPGGA,222022.00,5308.61438$GPRMC,222023.00,A,5308.61446,N,00813.28523,E,0.027,,070220,,,D*7F
$GPVTG,,T,,M,0.027,N,0.050,K,D*26
8.96;1022.33;56.51;5.07;1021.45;67.34;-1.49;0.14;-9.24;0.00;-0.00;-0.00;-16.61;3.04;23.51;123289;2020/02/07;22:20:24.00;53.14358;8.22142;1000000.00;0.06;255
$GPGGA,222023.00,5308.61446$GPRMC,222024.00,A,5308.61455,N,00813.28528,E,0.035,,070220,,,D*72
$GPVTG,,T,,M,0.035,N,0.065,K,D*23
8.95;1022.32;56.59;5.06;1021.48;67.53;-1.51;0.11;-9.25;0.00;-0.00;-0.00;-16.61;3.75;23.17;124289;2020/02/07;22:20:25.00;53.14358;8.22142;1000000.00;0.33;255
$GPGGA,222024.00,5308.61455$GPRMC,222025.00,A,5308.61465,N,00813.28521,E,0.188,,070220,,,D*7E
$GPVTG,,T,,M,0.188,N,0.347,K,D*27
8.95;1022.32;56.67;5.03;1021.50;67.68;-1.49;0.11;-9.19;0.00;-0.00;-0.00;-15.01;3.93;20.94;125286;2020/02/07;22:20:26.00;53.14358;8.22142;1000000.00;0.26;255
$GPGGA,222025.00,5308.61465$GPRMC,222026.00,A,5308.61472,N,00813.28521,E,0.145,,070220,,,D*7A
$GPVTG,,T,,M,0.145,N,0.268,K,D*2A
8.93;1022.34;56.75;5.00;1021.52;67.85;-1.50;0.12;-9.22;0.00;-0.00;-0.00;-17.15;5.00;22.31;126285;2020/02/07;22:20:27.00;53.14358;8.22142;1000000.00;0.09;255
$GPGGA,222026.00,5308.61472$GPRMC,222027.00,A,5308.61479,N,00813.28520,E,0.056,,070220,,,D*72
$GPVTG,,T,,M,0.056,N,0.104,K,D*20
8.91;1022.35;56.83;4.99;1021.54;67.99;-1.50;0.13;-9.21;0.00;-0.00;-0.00;-15.36;4.29;23.00;127285;2020/02/07;22:20:28.00;53.14358;8.22142;1000000.00;0.28;255
$GPGGA,222027.00,5308.61479$GPRMC,222028.00,A,5308.61484,N,00813.28519,E,0.152,,070220,,,D*70
$GPVTG,,T,,M,0.152,N,0.281,K,D*2B
8.90;1022.37;56.91;4.95;1021.57;68.10;-1.50;0.13;-9.21;0.00;-0.00;-0.00;-16.08;4.64;21.97;128285;2020/02/07;22:20:29.00;53.14358;8.22142;1000000.00;0.28;255
$GPGGA,222028.00,5308.61484$GPRMC,222029.00,A,5308.61485,N,00813.28531,E,0.156,,070220,,,D*7E
$GPVTG,,T,,M,0.156,N,0.290,K,D*2F
8.88;1022.36;56.98;4.93;1021.55;68.29;-1.51;0.13;-9.24;0.00;-0.00;-0.00;-16.26;2.68;22.48;129288;2020/02/07;22:20:30.00;53.14358;8.22142;1000000.00;0.54;255
$GPGGA,222029.00,5308.61485$GPRMC,222030.00,A,5308.61485,N,00813.28541,E,0.291,,070220,,,D*79
$GPVTG,,T,,M,0.291,N,0.539,K,D*23
8.81;1022.39;57.07;4.95;1021.58;68.33;-1.51;0.13;-9.25;0.00;-0.00;-0.00;-16.79;3.57;21.97;130296;2020/02/07;22:20:31.00;53.14358;8.22143;1000000.00;0.19;255
$GPGGA,222030.00,5308.61485$GPRMC,222031.00,A,5308.61482,N,00813.28560,E,0.102,,070220,,,D*75
$GPVTG,,T,,M,0.102,N,0.188,K,D*24
8.77;1022.37;57.18;4.95;1021.59;68.48;-1.50;0.13;-9.24;0.00;-0.00;-0.00;-16.79;3.22;21.28;131283;2020/02/07;22:20:32.00;53.14358;8.22143;1000000.00;0.43;255
$GPGGA,222031.00,5308.61482$GPRMC,222032.00,A,5308.61478,N,00813.28578,E,0.231,,070220,,,D*79
$GPVTG,,T,,M,0.231,N,0.429,K,D*29
8.68;1022.38;57.28;4.93;1021.56;68.56;-1.50;0.13;-9.21;0.00;-0.00;-0.00;-17.33;4.11;22.48;132284;2020/02/07;22:20:33.00;53.14358;8.22143;1000000.00;0.31;255
$GPGGA,222032.00,5308.61478$GPRMC,222033.00,A,5308.61474,N,00813.28588,E,0.179,,070220,,,D*74
$GPVTG,,T,,M,0.179,N,0.332,K,D*2B
8.56;1022.35;57.44;4.92;1021.53;68.64;-1.51;0.14;-9.18;0.00;-0.00;-0.00;-15.18;4.11;21.45;133283;2020/02/07;22:20:34.00;53.14358;8.22143;1000000.00;0.69;255
$GPGGA,222033.00,5308.61474$GPRMC,222034.00,A,5308.61475,N,00813.28582,E,0.374,,070220,,,D*77
$GPVTG,,T,,M,0.374,N,0.693,K,D*2A
8.40;1022.34;57.66;4.89;1021.54;68.76;-1.51;0.15;-9.22;0.00;-0.00;-0.00;-16.08;3.22;21.62;134291;2020/02/07;22:20:35.00;53.14358;8.22142;1000000.00;3.41;255
$GPGGA,222034.00,5308.61475$GPRMC,222035.00,A,5308.61482,N,00813.28523,E,1.847,285.05,070220,,,D*6B
$GPVTG,285.05,T,,M,1.847,N,3.420,K,D*3D
8.43;1022.34;57.85;4.86;1021.58;68.87;-1.51;0.13;-9.19;0.00;-0.00;-0.00;-16.43;4.29;22.65;135282;2020/02/07;22:20:36.00;53.14358;8.22142;1000000.00;0.17;255
$GPGGA,222035.00,5308$GPRMC,222036.00,A,5308.61475,N,00813.28505,E,0.091,,070220,,,D*72
$GPVTG,,T,,M,0.091,N,0.168,K,D*21
8.47;1022.32;57.99;4.80;1021.55;69.02;-1.50;0.13;-9.19;0.00;-0.00;-0.00;-16.43;3.93;21.28;136288;2020/02/07;22:20:37.00;53.14358;8.22142;1000000.00;0.07;255
$GPGGA,222036.00,5308.61475$GPRMC,222037.00,A,5308.61467,N,00813.28517,E,0.046,,070220,,,D*79
$GPVTG,,T,,M,0.046,N,0.085,K,D*29
8.43;1022.34;58.13;4.77;1021.55;69.16;-1.51;0.14;-9.23;0.00;-0.00;-0.00;-16.43;3.57;21.97;137285;2020/02/07;22:20:38.00;53.14358;8.22142;1000000.00;0.09;255
$GPGGA,222037.00,5308.61467$GPRMC,222038.00,A,5308.61462,N,00813.28517,E,0.053,,070220,,,D*77
$GPVTG,,T,,M,0.053,N,0.098,K,D*21
8.37;1022.35;58.26;4.76;1021.54;69.34;-1.51;0.13;-9.20;0.00;-0.00;-0.00;-15.54;3.75;21.79;138286;2020/02/07;22:20:39.00;53.14358;8.22142;1000000.00;0.20;255
$GPGGA,222038.00,5308.61462$GPRMC,222039.00,A,5308.61455,N,00813.28522,E,0.117,,070220,,,D*75
$GPVTG,,T,,M,0.117,N,0.217,K,D*25
8.34;1022.33;58.39;4.74;1021.54;69.42;-1.51;0.14;-9.22;0.00;-0.00;-0.00;-16.43;3.57;22.65;139287;2020/02/07;22:20:40.00;53.14358;8.22142;1000000.00;0.15;255
$GPGGA,222039.00,5308.61455$GPRMC,222040.00,A,5308.61451,N,00813.28520,E,0.086,,070220,,,D*74
$GPVTG,,T,,M,0.086,N,0.160,K,D*2F
8.31;1022.32;58.50;4.74;1021.53;69.53;-1.51;0.15;-9.19;0.00;-0.00;-0.00;-15.54;4.11;22.14;140285;2020/02/07;22:20:41.00;53.14358;8.22142;1000000.00;0.06;255
$GPGGA,222040.00,5308.61451$GPRMC,222041.00,A,5308.61448,N,00813.28509,E,0.032,,070220,,,D*79
$GPVTG,,T,,M,0.032,N,0.060,K,D*21
8.31;1022.30;58.62;4.72;1021.51;69.65;-1.51;0.13;-9.20;0.00;-0.00;-0.00;-14.83;3.75;22.48;141285;2020/02/07;22:20:42.00;53.14358;8.22141;1000000.00;0.02;255
$GPGGA,222041.00,5308.61448$GPRMC,222042.00,A,5308.61450,N,00813.28483,E,0.012,,070220,,,D*72
$GPVTG,,T,,M,0.012,N,0.022,K,D*25
8.29;1022.32;58.72;4.69;1021.50;69.76;-1.53;0.13;-9.22;0.00;-0.00;-0.00;-16.26;3.39;22.14;142285;2020/02/07;22:20:43.00;53.14358;8.22141;1000000.00;0.04;255
$GPGGA,222042.00,5308.61450$GPRMC,222043.00,A,5308.61449,N,00813.28475,E,0.029,,070220,,,D*7A
$GPVTG,,T,,M,0.029,N,0.053,K,D*2B
8.28;1022.32;58.82;4.66;1021.49;69.91;-1.51;0.14;-9.18;0.00;-0.00;-0.00;-16.08;3.57;21.97;143285;2020/02/07;22:20:44.00;53.14358;8.22141;1000000.00;0.04;255
$GPGGA,222043.00,5308.61449$GPRMC,222044.00,A,5308.61444,N,00813.28479,E,0.024,,070220,,,D*71
$GPVTG,,T,,M,0.024,N,0.044,K,D*20
8.25;1022.30;58.93;4.64;1021.52;70.00;-1.49;0.15;-9.18;0.00;-0.00;-0.00;-16.43;1.79;22.31;144288;2020/02/07;22:20:45.00;53.14358;8.22141;1000000.00;0.02;255
$GPGGA,222044.00,5308.61444$GPRMC,222045.00,A,5308.61443,N,00813.28481,E,0.015,,070220,,,D*72
$GPVTG,,T,,M,0.015,N,0.027,K,D*27
8.25;1022.30;59.03;4.62;1021.52;70.13;-1.49;0.13;-9.21;0.00;-0.00;-0.00;-16.79;3.57;22.65;145292;2020/02/07;22:20:46.00;53.14358;8.22141;1000000.00;0.07;255
$GPGGA,222045.00,5308.61443$GPRMC,222046.00,A,5308.61442,N,00813.28483,E,0.045,,070220,,,D*77
$GPVTG,,T,,M,0.045,N,0.084,K,D*2B
8.23;1022.30;59.13;4.60;1021.52;70.25;-1.49;0.16;-9.16;0.00;-0.00;-0.00;-15.90;3.04;22.14;146287;2020/02/07;22:20:47.00;53.14358;8.22141;1000000.00;0.15;255
$GPGGA,222046.00,5308.61442$GPRMC,222047.00,A,5308.61441,N,00813.28479,E,0.082,,070220,,,D*7B
$GPVTG,,T,,M,0.082,N,0.153,K,D*2B
8.21;1022.27;59.21;4.57;1021.52;70.37;-1.50;0.14;-9.18;0.00;-0.00;-0.00;-15.36;2.50;21.97;147290;2020/02/07;22:20:48.00;53.14357;8.22141;1000000.00;0.07;255
$GPGGA,222047.00,5308.61441$GPRMC,222048.00,A,5308.61440,N,00813.28481,E,0.043,,070220,,,D*7F
$GPVTG,,T,,M,0.043,N,0.079,K,D*2F
8.18;1022.26;59.32;4.55;1021.51;70.48;-1.51;0.16;-9.18;0.00;-0.00;-0.00;-15.36;5.36;22.31;148285;2020/02/07;22:20:49.00;53.14358;8.22141;1000000.00;0.07;255
$GPGGA,222048.00,5308.61440$GPRMC,222049.00,A,5308.61441,N,00813.28480,E,0.041,,070220,,,D*7C
$GPVTG,,T,,M,0.041,N,0.076,K,D*22
8.16;1022.28;59.40;4.53;1021.51;70.62;-1.51;0.14;-9.17;0.00;-0.00;-0.00;-16.61;3.39;23.85;149284;2020/02/07;22:20:50.00;53.14358;8.22141;1000000.00;0.07;255
$GPGGA,222049.00,5308.61441$GPRMC,222050.00,A,5308.61443,N,00813.28478,E,0.049,,070220,,,D*79
$GPVTG,,T,,M,0.049,N,0.091,K,D*23
8.12;1022.28;59.49;4.51;1021.48;70.72;-1.52;0.13;-9.19;0.00;-0.00;-0.00;-16.61;3.04;23.51;150289;2020/02/07;22:20:51.00;53.14358;8.22142;1000000.00;0.09;255
$GPGGA,222050.00,5308.61443$GPRMC,222051.00,A,5308.61442,N,00813.28496,E,0.053,,070220,,,D*72
$GPVTG,,T,,M,0.053,N,0.098,K,D*21
8.13;1022.26;59.57;4.49;1021.51;70.85;-1.51;0.14;-9.18;0.00;-0.00;-0.00;-16.61;3.75;22.14;151287;2020/02/07;22:20:52.00;53.14358;8.22142;1000000.00;0.07;255
$GPGGA,222051.00,5308.61442$GPRMC,222052.00,A,5308.61442,N,00813.28510,E,0.044,,070220,,,D*78
$GPVTG,,T,,M,0.044,N,0.081,K,D*2F
8.13;1022.29;59.64;4.48;1021.50;70.94;-1.50;0.14;-9.21;0.00;-0.00;-0.00;-16.79;3.93;24.03;152289;2020/02/07;22:20:53.00;53.14357;8.22142;1000000.00;0.06;255
$GPGGA,222052.00,5308.61442$GPRMC,222053.00,A,5308.61439,N,00813.28525,E,0.033,,070220,,,D*73
$GPVTG,,T,,M,0.033,N,0.061,K,D*21
8.11;1022.31;59.71;4.47;1021.52;71.07;-1.51;0.15;-9.19;0.00;-0.00;-0.00;-16.26;2.32;23.85;153293;2020/02/07;22:20:54.00;53.14357;8.22142;1000000.00;0.17;255
$GPGGA,222053.00,5308.61439$GPRMC,222054.00,A,5308.61439,N,00813.28532,E,0.090,,070220,,,D*7B
$GPVTG,,T,,M,0.090,N,0.167,K,D*2F
8.11;1022.30;59.76;4.46;1021.52;71.13;-1.50;0.15;-9.18;0.00;-0.00;-0.00;-15.54;3.39;22.82;154288;2020/02/07;22:20:55.00;53.14357;8.22142;1000000.00;0.09;255
$GPGGA,222054.00,5308.61439$GPRMC,222055.00,A,5308.61439,N,00813.28541,E,0.053,,070220,,,D*71
$GPVTG,,T,,M,0.053,N,0.099,K,D*20
8.11;1022.30;59.83;4.45;1021.52;71.22;-1.51;0.13;-9.16;0.00;-0.00;-0.00;-15.54;5.54;23.17;155286;2020/02/07;22:20:56.00;53.14358;8.22142;1000000.00;0.11;255
$GPGGA,222055.00,5308.61439$GPRMC,222056.00,A,5308.61441,N,00813.28544,E,0.063,,070220,,,D*7B
$GPVTG,,T,,M,0.063,N,0.116,K,D*25
8.09;1022.29;59.89;4.43;1021.55;71.32;-1.51;0.15;-9.16;0.00;-0.00;-0.00;-15.01;2.50;24.03;156289;2020/02/07;22:20:57.00;53.14358;8.22142;1000000.00;0.02;255
$GPGGA,222056.00,5308.61441$GPRMC,222057.00,A,5308.61443,N,00813.28546,E,0.014,,070220,,,D*7A
$GPVTG,,T,,M,0.014,N,0.027,K,D*26
8.07;1022.38;59.96;4.41;1021.54;71.41;-1.50;0.15;-9.20;0.00;-0.00;-0.00;-16.43;4.29;22.31;157287;2020/02/07;22:20:58.00;53.14358;8.22143;1000000.00;0.09;255
$GPGGA,222057.00,5308.61443$GPRMC,222058.00,A,5308.61441,N,00813.28560,E,0.055,,070220,,,D*76
$GPVTG,,T,,M,0.055,N,0.103,K,D*24
8.05;1022.36;60.02;4.41;1021.57;71.48;-1.52;0.15;-9.20;0.00;-0.00;-0.00;-16.97;3.04;23.17;158287;2020/02/07;22:20:59.00;53.14357;8.22143;1000000.00;0.04;255
$GPGGA,222058.00,5308.61441$GPRMC,222059.00,A,5308.61439,N,00813.28570,E,0.020,,070220,,,D*7B
$GPVTG,,T,,M,0.020,N,0.038,K,D*2F
8.04;1022.37;60.07;4.39;1021.55;71.58;-1.51;0.15;-9.18;0.00;-0.00;-0.00;-16.08;3.57;21.97;159290;2020/02/07;22:21:00.00;53.14357;8.22143;1000000.00;0.52;255
$GPGGA,222059.00,5308.61439$GPRMC,222100.00,A,5308.61440,N,00813.28573,E,0.288,,070220,,,D*7B
$GPVTG,,T,,M,0.288,N,0.534,K,D*26
8.03;1022.37;60.14;4.37;1021.57;71.68;-1.51;0.15;-9.19;0.00;-0.00;-0.00;-15.54;3.04;22.82;160289;2020/02/07;22:21:01.00;53.14358;8.22143;1000000.00;0.19;255
$GPGGA,222100.00,5308.61440$GPRMC,222101.00,A,5308.61441,N,00813.28577,E,0.101,,070220,,,D*7D
$GPVTG,,T,,M,0.101,N,0.186,K,D*29
8.02;1022.36;60.20;4.36;1021.58;71.76;-1.52;0.15;-9.18;0.00;-0.00;-0.00;-15.90;1.97;22.14;161290;2020/02/07;22:21:02.00;53.14358;8.22143;1000000.00;0.48;255
$GPGGA,222101.00,5308.61441$GPRMC,222102.00,A,5308.61444,N,00813.28577,E,0.268,,070220,,,D*77
$GPVTG,,T,,M,0.268,N,0.496,K,D*21
8.02;1022.37;60.26;4.35;1021.55;71.84;-1.52;0.13;-9.19;0.00;-0.00;-0.00;-16.61;3.75;23.85;162287;2020/02/07;22:21:03.00;53.14358;8.22143;1000000.00;0.28;255
$GPGGA,222102.00,5308.61444$GPRMC,222103.00,A,5308.61445,N,00813.28586,E,0.151,,070220,,,D*70
$GPVTG,,T,,M,0.151,N,0.280,K,D*29
8.01;1022.36;60.32;4.35;1021.58;71.94;-1.50;0.16;-9.17;0.00;-0.00;-0.00;-14.65;2.86;21.62;163287;2020/02/07;22:21:04.00;53.14358;8.22143;1000000.00;0.35;255
$GPGGA,222103.00,5308.61445$GPRMC,222104.00,A,5308.61441,N,00813.28606,E,0.194,,070220,,,D*71
$GPVTG,,T,,M,0.194,N,0.359,K,D*25
8.00;1022.36;60.37;4.34;1021.56;71.98;-1.52;0.13;-9.18;0.00;-0.00;-0.00;-16.79;3.93;23.00;164286;2020/02/07;22:21:05.00;53.14357;8.22144;1000000.00;0.13;255
$GPGGA,222104.00,5308.61441$GPRMC,222105.00,A,5308.61437,N,00813.28624,E,0.074,,070220,,,D*7E
$GPVTG,,T,,M,0.074,N,0.137,K,D*20
7.98;1022.38;60.41;4.34;1021.58;72.04;-1.53;0.14;-9.16;0.00;-0.00;-0.00;-16.61;2.68;22.14;165283;2020/02/07;22:21:06.00;53.14357;8.22144;1000000.00;0.17;255
$GPGGA,222105.00,5308.61437$GPRMC,222106.00,A,5308.61427,N,00813.28658,E,0.091,,070220,,,D*7C
$GPVTG,,T,,M,0.091,N,0.168,K,D*21
7.95;1022.38;60.47;4.33;1021.58;72.11;-1.52;0.15;-9.17;0.00;-0.00;-0.00;-16.26;4.47;22.14;166280;2020/02/07;22:21:07.00;53.14356;8.22145;1000000.00;0.26;255
$GPGGA,222106.00,5308.61427$GPRMC,222107.00,A,5308.61405,N,00813.28728,E,0.146,,070220,,,D*70
$GPVTG,,T,,M,0.146,N,0.271,K,D*21
7.92;1022.43;60.53;4.32;1021.58;72.17;-1.52;0.13;-9.20;0.00;-0.00;-0.00;-15.54;3.75;21.11;167281;2020/02/07;22:21:08.00;53.14356;8.22146;1000000.00;0.02;255
$GPGGA,222107.00,5308.61405$GPRMC,222108.00,A,5308.61387,N,00813.28783,E,0.017,,070220,,,D*76
$GPVTG,,T,,M,0.017,N,0.032,K,D*21
7.90;1022.41;60.61;4.32;1021.60;72.22;-1.50;0.15;-9.17;0.00;-0.00;-0.00;-17.86;3.57;22.31;168289;2020/02/07;22:21:09.00;53.14356;8.22147;1000000.00;0.33;255
$GPGGA,222108.00,5308.61387$GPRMC,222109.00,A,5308.61374,N,00813.28824,E,0.188,,070220,,,D*7E
$GPVTG,,T,,M,0.188,N,0.348,K,D*28
7.87;1022.42;60.67;4.32;1021.59;72.30;-1.53;0.15;-9.20;0.00;-0.00;-0.00;-15.90;2.68;22.82;169285;2020/02/07;22:21:10.00;53.14356;8.22148;1000000.00;0.07;255
$GPGGA,222109.00,5308.61374$GPRMC,222110.00,A,5308.61359,N,00813.28877,E,0.048,,070220,,,D*72
$GPVTG,,T,,M,0.048,N,0.089,K,D*2B
7.86;1022.40;60.72;4.31;1021.56;72.34;-1.52;0.12;-9.18;0.00;-0.00;-0.00;-15.72;2.86;21.97;170286;2020/02/07;22:21:11.00;53.14355;8.22149;1000000.00;0.09;255
$GPGGA,222110.00,5308.61359$GPRMC,222111.00,A,5308.61341,N,00813.28936,E,0.059,,070220,,,D*7E
$GPVTG,,T,,M,0.059,N,0.110,K,D*2A
7.85;1022.37;60.78;4.31;1021.56;72.40;-1.50;0.14;-9.16;0.00;-0.00;-0.00;-15.18;4.11;23.51;171286;2020/02/07;22:21:12.00;53.14355;8.22150;1000000.00;0.04;255
$GPGGA,222111.00,5308.61341$GPRMC,222112.00,A,5308.61322,N,00813.29003,E,0.022,,070220,,,D*7A
$GPVTG,,T,,M,0.022,N,0.040,K,D*22
7.83;1022.37;60.83;4.30;1021.59;72.45;-1.51;0.14;-9.15;0.00;-0.00;-0.00;-16.61;3.39;22.14;172283;2020/02/07;22:21:13.00;53.14355;8.22151;1000000.00;0.06;255
$GPGGA,222112.00,5308.61322$GPRMC,222113.00,A,5308.61305,N,00813.29067,E,0.034,,070220,,,D*7B
$GPVTG,,T,,M,0.034,N,0.064,K,D*23
7.84;1022.38;60.89;4.29;1021.58;72.51;-1.53;0.14;-9.16;0.00;-0.00;-0.00;-15.54;3.04;22.82;173285;2020/02/07;22:21:14.00;53.14354;8.22153;1000000.00;0.37;255
$GPGGA,222113.00,5308.61305$GPRMC,222114.00,A,5308.61276,N,00813.29174,E,0.207,,070220,,,D*78
$GPVTG,,T,,M,0.207,N,0.384,K,D*2C
7.85;1022.40;60.95;4.30;1021.56;72.57;-1.51;0.14;-9.19;0.00;-0.00;-0.00;-16.61;2.32;23.17;174280;2020/02/07;22:21:15.00;53.14354;8.22154;1000000.00;0.06;255
$GPGGA,222114.00,5308.61276$GPRMC,222115.00,A,5308.61253,N,00813.29261,E,0.038,,070220,,,D*77
$GPVTG,,T,,M,0.038,N,0.070,K,D*2A
7.84;1022.40;61.01;4.30;1021.56;72.61;-1.53;0.16;-9.17;0.00;-0.00;-0.00;-14.47;3.04;22.82;175281;2020/02/07;22:21:16.00;53.14354;8.22155;1000000.00;0.04;255
$GPGGA,222115.00,5308.61253$GPRMC,222116.00,A,5308.61235,N,00813.29329,E,0.027,,070220,,,D*77
$GPVTG,,T,,M,0.027,N,0.049,K,D*2E
7.84;1022.39;61.05;4.29;1021.55;72.67;-1.52;0.13;-9.17;0.00;-0.00;-0.00;-16.79;3.22;22.31;176283;2020/02/07;22:21:17.00;53.14353;8.22157;1000000.00;0.17;255
$GPGGA,222116.00,5308.61235$GPRMC,222117.00,A,5308.61215,N,00813.29388,E,0.091,,070220,,,D*72
$GPVTG,,T,,M,0.091,N,0.169,K,D*20
7.84;1022.38;61.10;4.28;1021.56;72.72;-1.51;0.13;-9.16;0.00;-0.00;-0.00;-17.86;3.93;23.00;177287;2020/02/07;22:21:18.00;53.14353;8.22157;1000000.00;0.15;255
$GPGGA,222117.00,5308.61215$GPRMC,222118.00,A,5308.61203,N,00813.29422,E,0.089,,070220,,,D*74
$GPVTG,,T,,M,0.089,N,0.164,K,D*24
7.84;1022.37;61.15;4.27;1021.55;72.77;-1.52;0.14;-9.18;0.00;-0.00;-0.00;-15.18;2.32;23.51;178284;2020/02/07;22:21:19.00;53.14353;8.22157;1000000.00;0.04;255
$GPGGA,222118.00,5308.61203$GPRMC,222119.00,A,5308.61197,N,00813.29444,E,0.021,,070220,,,D*79
$GPVTG,,T,,M,0.021,N,0.039,K,D*2F
7.83;1022.34;61.19;4.27;1021.57;72.83;-1.53;0.15;-9.16;0.00;-0.00;-0.00;-16.97;2.68;23.51;179283;2020/02/07;22:21:20.00;53.14353;8.22158;1000000.00;0.06;255
$GPGGA,222119.00,5308.61197$GPRMC,222120.00,A,5308.61192,N,00813.29466,E,0.037,,070220,,,D*71
$GPVTG,,T,,M,0.037,N,0.068,K,D*2C
7.80;1022.37;61.24;4.26;1021.54;72.88;-1.50;0.15;-9.17;0.00;-0.00;-0.00;-15.72;2.86;22.31;180285;2020/02/07;22:21:21.00;53.14353;8.22158;1000000.00;0.04;255
$GPGGA,222120.00,5308.61192$GPRMC,222121.00,A,5308.61190,N,00813.29482,E,0.028,,070220,,,D*76
$GPVTG,,T,,M,0.028,N,0.052,K,D*2B
7.74;1022.41;61.30;4.27;1021.58;72.91;-1.51;0.14;-9.14;0.00;-0.00;-0.00;-15.54;3.04;21.79;181284;2020/02/07;22:21:22.00;53.14353;8.22158;1000000.00;0.22;255
$GPGGA,222121.00,5308.61190$GPRMC,222122.00,A,5308.61191,N,00813.29487,E,0.121,,070220,,,D*79
$GPVTG,,T,,M,0.121,N,0.223,K,D*27
7.67;1022.36;61.40;4.26;1021.53;72.94;-1.52;0.15;-9.17;0.00;-0.00;-0.00;-16.26;3.39;22.48;182291;2020/02/07;22:21:23.00;53.14353;8.22158;1000000.00;1.35;255
$GPGGA,222122.00,5308.61191$GPRMC,222123.00,A,5308.61198,N,00813.29475,E,0.735,288.27,070220,,,D*66
$GPVTG,288.27,T,,M,0.735,N,1.360,K,D*3A
7.56;1022.36;61.53;4.25;1021.47;73.04;-1.53;0.15;-9.16;0.00;-0.00;-0.00;-16.97;4.11;23.51;183283;2020/02/07;22:21:24.00;53.14353;8.22158;1000000.00;0.52;255
$GPGGA,222123.00,5308$GPRMC,222124.00,A,5308.61203,N,00813.29465,E,0.281,,070220,,,D*72
$GPVTG,,T,,M,0.281,N,0.521,K,D*2B
7.37;1022.45;61.74;4.24;1021.55;73.05;-1.52;0.15;-9.15;0.00;-0.00;-0.00;-15.18;2.68;21.79;184286;2020/02/07;22:21:25.00;53.14353;8.22157;1000000.00;2.00;255
$GPGGA,222124.00,5308.61203$GPRMC,222125.00,A,5308.61212,N,00813.29428,E,1.081,,070220,,,D*79
$GPVTG,,T,,M,1.081,N,2.003,K,D*2F
7.31;1022.35;61.93;4.23;1021.54;73.09;-1.53;0.14;-9.16;0.00;-0.00;-0.00;-15.18;3.04;22.48;185290;2020/02/07;22:21:26.00;53.14354;8.22154;1000000.00;10.09;255
$GPGGA,222125.00,5308.61212$GPRMC,222126.00,A,5308.61256,N,00813.29260,E,5.451,292.71,070220,,,D*6C
$GPVTG,292.71,T,,M,5.451,N,10.096,K,D*0C
7.42;1022.39;62.09;4.22;1021.55;73.13;-1.54;0.15;-9.17;0.00;-0.00;-0.00;-17.33;2.32;23.51;186289;2020/02/07;22:21:27.00;53.14354;8.22153;1000000.00;1.19;255
$GPGGA,222126.00,530$GPRMC,222127.00,A,5308.61270,N,00813.29184,E,0.645,292.96,070220,,,D*6B
$GPVTG,292.96,T,,M,0.645,N,1.194,K,D*34
7.42;1022.40;62.17;4.22;1021.54;73.17;-1.53;0.13;-9.13;0.00;-0.00;-0.00;-15.36;3.22;23.68;187282;2020/02/07;22:21:28.00;53.14354;8.22153;1000000.00;0.48;255
$GPGGA,222127.00,5308$GPRMC,222128.00,A,5308.61264,N,00813.29192,E,0.261,,070220,,,D*7C
$GPVTG,,T,,M,0.261,N,0.484,K,D*2B
7.43;1022.41;62.26;4.22;1021.56;73.18;-1.52;0.15;-9.13;0.00;-0.00;-0.00;-16.26;4.47;22.48;188282;2020/02/07;22:21:29.00;53.14354;8.22153;1000000.00;0.70;255
$GPGGA,222128.00,5308.61264$GPRMC,222129.00,A,5308.61253,N,00813.29212,E,0.389,,070220,,,D*75
$GPVTG,,T,,M,0.389,N,0.720,K,D*21
7.43;1022.45;62.34;4.22;1021.57;73.25;-1.52;0.16;-9.16;0.00;-0.00;-0.00;-16.61;3.04;22.48;189283;2020/02/07;22:21:30.00;53.14353;8.22155;1000000.00;0.00;255
$GPGGA,222129.00,5308.61253$GPRMC,222130.00,A,5308.61226,N,00813.29277,E,0.007,,070220,,,D*79
$GPVTG,,T,,M,0.007,N,0.013,K,D*23
7.37;1022.47;62.42;4.22;1021.60;73.29;-1.53;0.15;-9.16;0.00;-0.00;-0.00;-16.26;4.11;22.82;190297;2020/02/07;22:21:31.00;53.14353;8.22156;1000000.00;0.59;255
$GPGGA,222130.00,5308.61226$GPRMC,222131.00,A,5308.61195,N,00813.29356,E,0.322,,070220,,,D*75
$GPVTG,,T,,M,0.322,N,0.596,K,D*2F
7.39;1022.49;62.50;4.22;1021.62;73.30;-1.52;0.14;-9.15;0.00;-0.00;-0.00;-15.36;4.29;22.65;191283;2020/02/07;22:21:32.00;53.14353;8.22157;1000000.00;0.17;255
$GPGGA,222131.00,5308.61195$GPRMC,222132.00,A,5308.61164,N,00813.29413,E,0.094,,070220,,,D*70
$GPVTG,,T,,M,0.094,N,0.174,K,D*29
7.39;1022.49;62.57;4.21;1021.63;73.33;-1.54;0.14;-9.15;0.00;-0.00;-0.00;-15.72;2.86;23.34;192285;2020/02/07;22:21:33.00;53.14352;8.22158;1000000.00;0.02;255
$GPGGA,222132.00,5308.61164$GPRMC,222133.00,A,5308.61135,N,00813.29472,E,0.013,,070220,,,D*7D
$GPVTG,,T,,M,0.013,N,0.024,K,D*22
7.35;1022.47;62.64;4.20;1021.62;73.37;-1.52;0.15;-9.15;0.00;-0.00;-0.00;-16.61;4.11;22.48;193284;2020/02/07;22:21:34.00;53.14352;8.22159;1000000.00;0.00;255
$GPGGA,222133.00,5308.61135$GPRMC,222134.00,A,5308.61095,N,00813.29558,E,0.009,,070220,,,D*73
$GPVTG,,T,,M,0.009,N,0.016,K,D*28
7.32;1022.45;62.71;4.19;1021.64;73.41;-1.50;0.15;-9.15;0.00;-0.00;-0.00;-16.61;3.75;23.51;194284;2020/02/07;22:21:35.00;53.14351;8.22161;1000000.00;0.06;255
$GPGGA,222134.00,5308.61095$GPRMC,222135.00,A,5308.61055,N,00813.29645,E,0.038,,070220,,,D*73
$GPVTG,,T,,M,0.038,N,0.070,K,D*2A
7.23;1022.46;62.80;4.19;1021.58;73.45;-1.52;0.16;-9.13;0.00;-0.00;-0.00;-15.36;2.86;23.34;195284;2020/02/07;22:21:36.00;53.14350;8.22161;1000000.00;0.02;255
$GPGGA,222135.00,5308.61055$GPRMC,222136.00,A,5308.61021,N,00813.29692,E,0.012,,070220,,,D*71
$GPVTG,,T,,M,0.012,N,0.023,K,D*24
7.20;1022.43;62.88;4.19;1021.55;73.47;-1.52;0.14;-9.14;0.00;-0.00;-0.00;-16.08;4.29;22.65;196282;2020/02/07;22:21:37.00;53.14350;8.22162;1000000.00;0.04;255
$GPGGA,222136.00,5308.61021$GPRMC,222137.00,A,5308.60993,N,00813.29716,E,0.026,,070220,,,D*7B
$GPVTG,,T,,M,0.026,N,0.047,K,D*21
7.21;1022.38;62.98;4.19;1021.55;73.49;-1.52;0.15;-9.13;0.00;-0.00;-0.00;-13.93;3.57;23.34;197285;2020/02/07;22:21:38.00;53.14350;8.22161;1000000.00;0.07;255
$GPGGA,222137.00,5308.60993$GPRMC,222138.00,A,5308.60981,N,00813.29692,E,0.049,,070220,,,D*73
$GPVTG,,T,,M,0.049,N,0.090,K,D*22
7.18;1022.41;63.08;4.19;1021.54;73.53;-1.52;0.16;-9.11;0.00;-0.00;-0.00;-16.79;2.50;23.34;198283;2020/02/07;22:21:39.00;53.14350;8.22162;1000000.00;0.04;255
$GPGGA,222138.00,5308.60981$GPRMC,222139.00,A,5308.60965,N,00813.29699,E,0.021,,070220,,,D*7D
$GPVTG,,T,,M,0.021,N,0.038,K,D*2E
7.14;1022.37;63.18;4.19;1021.54;73.53;-1.53;0.16;-9.13;0.00;-0.00;-0.00;-16.61;4.11;23.17;199283;2020/02/07;22:21:40.00;53.14349;8.22161;1000000.00;0.02;255
$GPGGA,222139.00,5308.60965$GPRMC,222140.00,A,5308.60954,N,00813.29668,E,0.016,,070220,,,D*7B
$GPVTG,,T,,M,0.016,N,0.030,K,D*22
7.09;1022.37;63.30;4.18;1021.54;73.56;-1.52;0.15;-9.11;0.00;-0.00;-0.00;-14.83;2.68;22.82;200288;2020/02/07;22:21:41.00;53.14349;8.22161;1000000.00;0.04;255
$GPGGA,222140.00,5308.60954$GPRMC,222141.00,A,5308.60947,N,00813.29648,E,0.024,,070220,,,D*7B
$GPVTG,,T,,M,0.024,N,0.045,K,D*21
7.11;1022.42;63.40;4.18;1021.56;73.60;-1.51;0.15;-9.14;0.00;-0.00;-0.00;-15.54;3.75;22.48;201286;2020/02/07;22:21:42.00;53.14349;8.22160;1000000.00;0.11;255
$GPGGA,222141.00,5308.60947$GPRMC,222142.00,A,5308.60938,N,00813.29618,E,0.069,,070220,,,D*7C
$GPVTG,,T,,M,0.069,N,0.127,K,D*2D
7.14;1022.40;63.49;4.17;1021.56;73.63;-1.53;0.14;-9.13;0.00;-0.00;-0.00;-14.83;4.82;23.17;202283;2020/02/07;22:21:43.00;53.14349;8.22160;1000000.00;0.02;255
$GPGGA,222142.00,5308.60938$GPRMC,222143.00,A,5308.60924,N,00813.29593,E,0.012,,070220,,,D*7C
$GPVTG,,T,,M,0.012,N,0.022,K,D*25
7.15;1022.40;63.55;4.17;1021.49;73.62;-1.54;0.14;-9.13;0.00;-0.00;-0.00;-15.36;3.22;23.34;203280;2020/02/07;22:21:44.00;53.14348;8.22159;1000000.00;0.02;255
$GPGGA,222143.00,5308.60924$GPRMC,222144.00,A,5308.60912,N,00813.29566,E,0.017,,070220,,,D*71
$GPVTG,,T,,M,0.017,N,0.031,K,D*22
7.13;1022.36;63.60;4.18;1021.55;73.67;-1.52;0.14;-9.15;0.00;-0.00;-0.00;-15.36;3.93;23.00;204282;2020/02/07;22:21:45.00;53.14348;8.22159;1000000.00;0.00;255
$GPGGA,222144.00,5308.60912$GPRMC,222145.00,A,5308.60895,N,00813.29545,E,0.009,,070220,,,D*70
$GPVTG,,T,,M,0.009,N,0.017,K,D*29
7.10;1022.35;63.66;4.18;1021.51;73.69;-1.53;0.16;-9.13;0.00;-0.00;-0.00;-16.43;3.93;23.34;205282;2020/02/07;22:21:46.00;53.14348;8.22159;1000000.00;0.04;255
$GPGGA,222145.00,5308.60895$GPRMC,222146.00,A,5308.60884,N,00813.29520,E,0.029,,070220,,,D*72
$GPVTG,,T,,M,0.029,N,0.053,K,D*2B
7.08;1022.37;63.73;4.17;1021.55;73.72;-1.52;0.14;-9.10;0.00;-0.00;-0.00;-15.54;3.39;22.82;206281;2020/02/07;22:21:47.00;53.14348;8.22158;1000000.00;0.04;255
$GPGGA,222146.00,5308.60884$GPRMC,222147.00,A,5308.60876,N,00813.29494,E,0.020,,070220,,,D*79
$GPVTG,,T,,M,0.020,N,0.038,K,D*2F
7.09;1022.37;63.78;4.17;1021.53;73.75;-1.54;0.16;-9.13;0.00;-0.00;-0.00;-16.26;2.32;22.82;207284;2020/02/07;22:21:48.00;53.14348;8.22158;1000000.00;0.04;255
$GPGGA,222147.00,5308.60876$GPRMC,222148.00,A,5308.60865,N,00813.29466,E,0.022,,070220,,,D*7B
$GPVTG,,T,,M,0.022,N,0.041,K,D*23
7.08;1022.36;63.83;4.18;1021.55;73.69;-1.52;0.17;-9.14;0.00;-0.00;-0.00;-16.26;2.68;22.82;208286;2020/02/07;22:21:49.00;53.14347;8.22157;1000000.00;0.17;255
$GPGGA,222148.00,5308.60865$GPRMC,222149.00,A,5308.60857,N,00813.29443,E,0.091,,070220,,,D*74
$GPVTG,,T,,M,0.091,N,0.168,K,D*21
7.09;1022.37;63.86;4.18;1021.52;73.78;-1.53;0.15;-9.12;0.00;-0.00;-0.00;-15.72;3.22;23.34;209280;2020/02/07;22:21:50.00;53.14347;8.22157;1000000.00;0.06;255
$GPGGA,222149.00,5308.60857$GPRMC,222150.00,A,5308.60852,N,00813.29414,E,0.031,,070220,,,D*71
$GPVTG,,T,,M,0.031,N,0.058,K,D*29
7.08;1022.36;63.89;4.18;1021.51;73.79;-1.52;0.17;-9.13;0.00;-0.00;-0.00;-15.72;3.57;21.62;210282;2020/02/07;22:21:51.00;53.14347;8.22157;1000000.00;0.09;255
$GPGGA,222150.00,5308.60852$GPRMC,222151.00,A,5308.60847,N,00813.29388,E,0.057,,070220,,,D*76
$GPVTG,,T,,M,0.057,N,0.106,K,D*23
7.08;1022.38;63.92;4.17;1021.56;73.81;-1.52;0.14;-9.12;0.00;-0.00;-0.00;-15.54;1.97;24.20;211279;2020/02/07;22:21:52.00;53.14347;8.22156;1000000.00;0.00;255
$GPGGA,222151.00,5308.60847$GPRMC,222152.00,A,5308.60842,N,00813.29361,E,0.004,,070220,,,D*71
$GPVTG,,T,,M,0.004,N,0.008,K,D*2A
7.06;1022.39;63.97;4.17;1021.59;73.84;-1.53;0.15;-9.14;0.00;-0.00;-0.00;-16.43;2.86;23.34;212281;2020/02/07;22:21:53.00;53.14347;8.22156;1000000.00;0.06;255
$GPGGA,222152.00,5308.60842$GPRMC,222153.00,A,5308.60832,N,00813.29347,E,0.035,,070220,,,D*71
$GPVTG,,T,,M,0.035,N,0.065,K,D*23
7.05;1022.40;64.01;4.16;1021.58;73.87;-1.54;0.16;-9.11;0.00;-0.00;-0.00;-16.43;3.57;22.65;213279;2020/02/07;22:21:54.00;53.14347;8.22156;1000000.00;0.06;255
$GPGGA,222153.00,5308.60832$GPRMC,222154.00,A,5308.60819,N,00813.29336,E,0.030,,070220,,,D*7C
$GPVTG,,T,,M,0.030,N,0.055,K,D*25
7.03;1022.40;64.05;4.15;1021.59;73.91;-1.52;0.15;-9.12;0.00;-0.00;-0.00;-15.72;1.79;23.68;214281;2020/02/07;22:21:55.00;53.14347;8.22155;1000000.00;0.07;255
$GPGGA,222154.00,5308.60819$GPRMC,222155.00,A,5308.60804,N,00813.29332,E,0.043,,070220,,,D*71
$GPVTG,,T,,M,0.043,N,0.079,K,D*2F
6.99;1022.42;64.10;4.14;1021.57;73.94;-1.55;0.15;-9.10;0.00;-0.00;-0.00;-15.54;2.68;22.48;215283;2020/02/07;22:21:56.00;53.14346;8.22155;1000000.00;0.02;255
$GPGGA,222155.00,5308.60804$GPRMC,222156.00,A,5308.60791,N,00813.29331,E,0.016,,070220,,,D*72
$GPVTG,,T,,M,0.016,N,0.030,K,D*22
6.94;1022.40;64.16;4.14;1021.60;73.97;-1.52;0.15;-9.12;0.00;-0.00;-0.00;-16.43;3.22;23.00;216291;2020/02/07;22:21:57.00;53.14346;8.22156;1000000.00;0.04;255
$GPGGA,222156.00,5308.60791$GPRMC,222157.00,A,5308.60766,N,00813.29376,E,0.020,,070220,,,D*7D
$GPVTG,,T,,M,0.020,N,0.037,K,D*20
6.89;1022.43;64.25;4.13;1021.61;74.00;-1.55;0.15;-9.11;0.00;-0.00;-0.00;-16.43;3.22;22.65;217285;2020/02/07;22:21:58.00;53.14345;8.22157;1000000.00;0.04;255
$GPGGA,222157.00,5308.60766$GPRMC,222158.00,A,5308.60748,N,00813.29400,E,0.021,,070220,,,D*79
$GPVTG,,T,,M,0.021,N,0.038,K,D*2E
6.84;1022.46;64.34;4.12;1021.61;74.02;-1.53;0.16;-9.15;0.00;-0.00;-0.00;-16.43;2.50;23.00;218287;2020/02/07;22:21:59.00;53.14345;8.22157;1000000.00;0.04;255
$GPGGA,222158.00,5308.60748$GPRMC,222159.00,A,5308.60726,N,00813.29449,E,0.021,,070220,,,D*7D
$GPVTG,,T,,M,0.021,N,0.039,K,D*2F
6.81;1022.42;64.45;4.12;1021.58;74.07;-1.53;0.16;-9.13;0.00;-0.00;-0.00;-16.79;3.57;23.34;219282;2020/02/07;22:22:00.00;53.14345;8.22158;1000000.00;0.00;255
$GPGGA,222159.00,5308.60726$GPRMC,222200.00,A,5308.60714,N,00813.29461,E,0.007,,070220,,,D*7D
$GPVTG,,T,,M,0.007,N,0.013,K,D*23
6.79;1022.43;64.55;4.11;1021.55;74.11;-1.54;0.15;-9.14;0.00;-0.00;-0.00;-16.43;3.22;24.03;220285;2020/02/07;22:22:01.00;53.14345;8.22158;1000000.00;0.09;255
$GPGGA,222200.00,5308.60714$GPRMC,222201.00,A,5308.60693,N,00813.29500,E,0.058,,070220,,,D*7E
$GPVTG,,T,,M,0.058,N,0.107,K,D*2D
